[{"pincode": "321023", "name": "Jurhera", "district": "Bharatpur", "state": "Rajasthan", "lat": 27.760537, "lng": 77.228744, "area_sq_km": 127.964, "metro_city": null}, {"pincode": "689104", "name": "Valanjavattom", "district": "Pathanamthitta", "state": "Kerala", "lat": 9.352264, "lng": 76.542886, "area_sq_km": 3.696, "metro_city": null}, {"pincode": "534186", "name": "Yandagandi", "district": "West Godavari", "state": "Andhra Pradesh", "lat": 16.662191, "lng": 81.519179, "area_sq_km": 53.751, "metro_city": null}, {"pincode": "534145", "name": "Madhavaram (West Godavari)", "district": "West Godavari", "state": "Andhra Pradesh", "lat": 16.875438, "lng": 81.598786, "area_sq_km": 39.312, "metro_city": null}, {"pincode": "283113", "name": "Bhadrauli", "district": "Agra", "state": "Uttar Pradesh", "lat": 26.889514, "lng": 78.488274, "area_sq_km": 147.205, "metro_city": null}, {"pincode": "534134", "name": "Attili", "district": "West Godavari", "state": "Andhra Pradesh", "lat": 16.70366, "lng": 81.586916, "area_sq_km": 90.931, "metro_city": null}, {"pincode": "689103", "name": "Kuttapuzha", "district": "Pathanamthitta", "state": "Kerala", "lat": 9.40697, "lng": 76.582401, "area_sq_km": 7.01, "metro_city": null}, {"pincode": "412204", "name": "Supa (Pune)", "district": "Pune", "state": "Maharashtra", "lat": 18.316828, "lng": 74.386044, "area_sq_km": 156.718, "metro_city": "Pune"}, {"pincode": "689102", "name": "Kavumbhagom", "district": "Pathanamthitta", "state": "Kerala", "lat": 9.384194, "lng": 76.55779, "area_sq_km": 1.936, "metro_city": null}, {"pincode": "586120", "name": "Korwar", "district": "Bijapur", "state": "Karnataka", "lat": 16.728888, "lng": 76.215528, "area_sq_km": 320.664, "metro_city": null}, {"pincode": "688540", "name": "Thirumalabhagom", "district": "Alappuzha", "state": "Kerala", "lat": 9.771325, "lng": 76.295803, "area_sq_km": 16.945, "metro_city": null}, {"pincode": "176091", "name": "Sanghole", "district": "Kangra", "state": "Himachal Pradesh", "lat": 31.898168, "lng": 76.633033, "area_sq_km": 20.827, "metro_city": null}, {"pincode": "283104", "name": "Bah", "district": "Agra", "state": "Uttar Pradesh", "lat": 26.85506, "lng": 78.580837, "area_sq_km": 218.234, "metro_city": null}, {"pincode": "795010", "name": "Lamlong", "district": "Imphal East, Kangpokpi", "state": "Manipur", "lat": 24.862229, "lng": 94.094367, "area_sq_km": 197.582, "metro_city": null}, {"pincode": "688536", "name": "Vayalar", "district": "Alappuzha", "state": "Kerala", "lat": 9.722077, "lng": 76.33889, "area_sq_km": 6.411, "metro_city": null}, {"pincode": "412112", "name": "Dasve Lavasa", "district": "Pune", "state": "Maharashtra", "lat": 18.404856, "lng": 73.46335, "area_sq_km": 206.793, "metro_city": "Pune"}, {"pincode": "451224", "name": "Maheshwar", "district": "Khargone (West Nimar)", "state": "Madhya Pradesh", "lat": 22.264961, "lng": 75.580864, "area_sq_km": 237.968, "metro_city": null}, {"pincode": "412110", "name": "Theur", "district": "Pune", "state": "Maharashtra", "lat": 18.501473, "lng": 74.075848, "area_sq_km": 35.869, "metro_city": "Pune"}, {"pincode": "451225", "name": "Piplya Buzurg", "district": "Khargone (West Nimar)", "state": "Madhya Pradesh", "lat": 22.211123, "lng": 75.837364, "area_sq_km": 141.939, "metro_city": null}, {"pincode": "534195", "name": "P.N.Kolanu", "district": "West Godavari", "state": "Andhra Pradesh", "lat": 16.74106, "lng": 81.396833, "area_sq_km": 37.259, "metro_city": null}, {"pincode": "689108", "name": "Peringara", "district": "Pathanamthitta", "state": "Kerala", "lat": 9.37937, "lng": 76.541765, "area_sq_km": 2.564, "metro_city": null}, {"pincode": "516218", "name": "Nandimandalam", "district": "Y.S.R.", "state": "Andhra Pradesh", "lat": 14.410977, "lng": 78.540152, "area_sq_km": 237.512, "metro_city": null}, {"pincode": "181132", "name": "Bishnah", "district": "Jammu", "state": "Jammu & Kashmir", "lat": 32.604094, "lng": 74.889829, "area_sq_km": 92.934, "metro_city": null}, {"pincode": "743318", "name": "Birlapur", "district": "South Twenty Four Parganas", "state": "West Bengal", "lat": 22.385013, "lng": 88.145282, "area_sq_km": 72.908, "metro_city": null}, {"pincode": "534197", "name": "Pippara", "district": "West Godavari", "state": "Andhra Pradesh", "lat": 16.721376, "lng": 81.527266, "area_sq_km": 19.53, "metro_city": null}, {"pincode": "180003", "name": "Industrial Estate (Jammu)", "district": "Jammu", "state": "Jammu & Kashmir", "lat": 32.693803, "lng": 74.764458, "area_sq_km": 94.249, "metro_city": null}, {"pincode": "689107", "name": "Muthoor", "district": "Pathanamthitta", "state": "Kerala", "lat": 9.407551, "lng": 76.548303, "area_sq_km": 6.988, "metro_city": null}, {"pincode": "177213", "name": "Gondpur Banera", "district": "Una", "state": "Himachal Pradesh", "lat": 31.741663, "lng": 76.062453, "area_sq_km": 48.109, "metro_city": null}, {"pincode": "689106", "name": "Kuttur (Pathanamthitta)", "district": "Pathanamthitta", "state": "Kerala", "lat": 9.356116, "lng": 76.583699, "area_sq_km": 6.172, "metro_city": null}, {"pincode": "177107", "name": "Pragpur", "district": "Kangra", "state": "Himachal Pradesh", "lat": 31.800745, "lng": 76.195582, "area_sq_km": 16.955, "metro_city": null}, {"pincode": "177048", "name": "Rangas", "district": "Hamirpur", "state": "Himachal Pradesh", "lat": 31.72679, "lng": 76.439666, "area_sq_km": 19.461, "metro_city": null}, {"pincode": "177006", "name": "Kashmir", "district": "Hamirpur", "state": "Himachal Pradesh", "lat": 31.636661, "lng": 76.413985, "area_sq_km": 24.75, "metro_city": null}, {"pincode": "689105", "name": "Manjady Jn", "district": "Pathanamthitta", "state": "Kerala", "lat": 9.386984, "lng": 76.599782, "area_sq_km": 9.329, "metro_city": null}, {"pincode": "534196", "name": "Ch.Agraharam", "district": "West Godavari", "state": "Andhra Pradesh", "lat": 16.757394, "lng": 81.535298, "area_sq_km": 27.644, "metro_city": null}, {"pincode": "815353", "name": "Madhupur", "district": "Deoghar", "state": "Jharkhand", "lat": 24.238034, "lng": 86.639737, "area_sq_km": 605.413, "metro_city": null}, {"pincode": "454441", "name": "Amjhera", "district": "Dhar", "state": "Madhya Pradesh", "lat": 22.507862, "lng": 75.031645, "area_sq_km": 630.98, "metro_city": null}, {"pincode": "688534", "name": "Aroor", "district": "Alappuzha", "state": "Kerala", "lat": 9.862622, "lng": 76.307166, "area_sq_km": 13.996, "metro_city": null}, {"pincode": "412109", "name": "Dehu", "district": "Pune", "state": "Maharashtra", "lat": 18.734995, "lng": 73.757315, "area_sq_km": 31.262, "metro_city": "Pune"}, {"pincode": "586103", "name": "Bijapur Vijaya College", "district": "Bijapur", "state": "Karnataka", "lat": 16.877328, "lng": 75.709486, "area_sq_km": 33.005, "metro_city": null}, {"pincode": "736134", "name": "Dewanhat", "district": "Koch Bihar", "state": "West Bengal", "lat": 26.223835, "lng": 89.51888, "area_sq_km": 201.089, "metro_city": null}, {"pincode": "515331", "name": "Lepakshi", "district": "Anantapur", "state": "Andhra Pradesh", "lat": 13.792788, "lng": 77.584246, "area_sq_km": 120.214, "metro_city": null}, {"pincode": "173233", "name": "Patta", "district": "Solan", "state": "Himachal Pradesh", "lat": 30.920148, "lng": 76.913348, "area_sq_km": 41.425, "metro_city": null}, {"pincode": "450661", "name": "Pandhana", "district": "Burhanpur, Khandwa (East Nimar)", "state": "Madhya Pradesh", "lat": 21.660134, "lng": 76.185686, "area_sq_km": 398.359, "metro_city": null}, {"pincode": "401102", "name": "Umbarpada", "district": "Palghar", "state": "Maharashtra", "lat": 19.557829, "lng": 72.802999, "area_sq_km": 192.009, "metro_city": null}, {"pincode": "173208", "name": "Arki", "district": "Solan", "state": "Himachal Pradesh", "lat": 31.150536, "lng": 76.989583, "area_sq_km": 44.268, "metro_city": null}, {"pincode": "515321", "name": "Rolla", "district": "Anantapur", "state": "Andhra Pradesh", "lat": 13.819704, "lng": 77.124196, "area_sq_km": 107.498, "metro_city": null}, {"pincode": "283103", "name": "Oef Firozabad", "district": "Firozabad", "state": "Uttar Pradesh", "lat": 27.192921, "lng": 78.32495, "area_sq_km": 108.516, "metro_city": null}, {"pincode": "515311", "name": "Agali (Ananthapur)", "district": "Anantapur", "state": "Andhra Pradesh", "lat": 13.798986, "lng": 77.039251, "area_sq_km": 103.805, "metro_city": null}, {"pincode": "173021", "name": "Majra (Sirmaur)", "district": "Sirmaur", "state": "Himachal Pradesh", "lat": 30.489014, "lng": 77.505119, "area_sq_km": 176.209, "metro_city": null}, {"pincode": "173001", "name": "Nahan", "district": "Sirmaur", "state": "Himachal Pradesh", "lat": 30.587024, "lng": 77.334153, "area_sq_km": 399.427, "metro_city": null}, {"pincode": "172114", "name": "Kaza", "district": "Lahul & Spiti", "state": "Himachal Pradesh", "lat": 32.437947, "lng": 78.001064, "area_sq_km": 5411.237, "metro_city": null}, {"pincode": "171225", "name": "Baghi (Shimla)", "district": "Shimla", "state": "Himachal Pradesh", "lat": 31.225561, "lng": 77.546227, "area_sq_km": 47.483, "metro_city": null}, {"pincode": "171219", "name": "Shoghi", "district": "Shimla", "state": "Himachal Pradesh", "lat": 31.046609, "lng": 77.104514, "area_sq_km": 12.13, "metro_city": null}, {"pincode": "365560", "name": "Rajula", "district": "Amreli", "state": "Gujarat", "lat": 21.036739, "lng": 71.480452, "area_sq_km": 518.358, "metro_city": null}, {"pincode": "515341", "name": "Chilamathur", "district": "Anantapur", "state": "Andhra Pradesh", "lat": 13.821052, "lng": 77.678842, "area_sq_km": 116.441, "metro_city": null}, {"pincode": "174309", "name": "Bahina", "district": "Hamirpur", "state": "Himachal Pradesh", "lat": 31.503476, "lng": 76.511122, "area_sq_km": 23.6, "metro_city": null}, {"pincode": "174311", "name": "Salauni", "district": "Hamirpur", "state": "Himachal Pradesh", "lat": 31.569569, "lng": 76.523409, "area_sq_km": 15.176, "metro_city": null}, {"pincode": "174503", "name": "Pubowal", "district": "Una", "state": "Himachal Pradesh", "lat": 31.371124, "lng": 76.183283, "area_sq_km": 32.584, "metro_city": null}, {"pincode": "794110", "name": "Rongjeng", "district": "East Garo Hills, North Garo Hills", "state": "Meghalaya", "lat": 25.763832, "lng": 90.844508, "area_sq_km": 787.618, "metro_city": null}, {"pincode": "604306", "name": "Rettanai", "district": "Viluppuram", "state": "Tamil Nadu", "lat": 12.21258, "lng": 79.576583, "area_sq_km": 56.953, "metro_city": null}, {"pincode": "412107", "name": "Panshet", "district": "Pune", "state": "Maharashtra", "lat": 18.359223, "lng": 73.57103, "area_sq_km": 163.816, "metro_city": "Pune"}, {"pincode": "515414", "name": "Putlur", "district": "Anantapur", "state": "Andhra Pradesh", "lat": 14.762247, "lng": 77.94954, "area_sq_km": 220.55, "metro_city": null}, {"pincode": "785615", "name": "Numaligarh", "district": "Golaghat", "state": "Assam", "lat": 26.650496, "lng": 93.672141, "area_sq_km": 75.767, "metro_city": null}, {"pincode": "412106", "name": "Vadgaon (Pune)", "district": "Pune", "state": "Maharashtra", "lat": 18.857458, "lng": 73.567007, "area_sq_km": 314.211, "metro_city": "Pune"}, {"pincode": "175136", "name": "Haripur (Kullu)", "district": "Kullu", "state": "Himachal Pradesh", "lat": 32.172124, "lng": 77.208512, "area_sq_km": 9.149, "metro_city": null}, {"pincode": "516227", "name": "Badvel Bazaar", "district": "Y.S.R.", "state": "Andhra Pradesh", "lat": 14.786194, "lng": 79.056979, "area_sq_km": 133.895, "metro_city": null}, {"pincode": "273013", "name": "B.R.D Medical College", "district": "Gorakhpur", "state": "Uttar Pradesh", "lat": 26.84077, "lng": 83.42427, "area_sq_km": 64.641, "metro_city": null}, {"pincode": "585401", "name": "Bidar", "district": "Bidar", "state": "Karnataka", "lat": 17.900138, "lng": 77.487664, "area_sq_km": 56.304, "metro_city": null}, {"pincode": "604210", "name": "Illodu", "district": "Viluppuram", "state": "Tamil Nadu", "lat": 12.32229, "lng": 79.421382, "area_sq_km": 52.343, "metro_city": null}, {"pincode": "515405", "name": "Pedda Vadagur", "district": "Anantapur", "state": "Andhra Pradesh", "lat": 15.022276, "lng": 77.696169, "area_sq_km": 159.408, "metro_city": null}, {"pincode": "691516", "name": "Karingannur", "district": "Kollam", "state": "Kerala", "lat": 8.912709, "lng": 76.822705, "area_sq_km": 15.813, "metro_city": null}, {"pincode": "604203", "name": "Melolakkur", "district": "Viluppuram", "state": "Tamil Nadu", "lat": 12.321456, "lng": 79.488756, "area_sq_km": 65.577, "metro_city": null}, {"pincode": "572228", "name": "Kandikere", "district": "Tumkur", "state": "Karnataka", "lat": 13.509242, "lng": 76.633389, "area_sq_km": 243.863, "metro_city": null}, {"pincode": "174507", "name": "Tahliwal", "district": "Una", "state": "Himachal Pradesh", "lat": 31.349498, "lng": 76.263633, "area_sq_km": 4.171, "metro_city": null}, {"pincode": "585402", "name": "Bidar G.N.Jhira", "district": "Bidar", "state": "Karnataka", "lat": 17.976655, "lng": 77.4653, "area_sq_km": 274.521, "metro_city": null}, {"pincode": "182104", "name": "PTC Udhampur", "district": "Udhampur", "state": "Jammu & Kashmir", "lat": 32.924206, "lng": 75.13672, "area_sq_km": 7.342, "metro_city": null}, {"pincode": "451556", "name": "Anjad", "district": "Barwani", "state": "Madhya Pradesh", "lat": 22.037974, "lng": 75.159508, "area_sq_km": 266.817, "metro_city": null}, {"pincode": "516228", "name": "Anantharajupuram", "district": "Y.S.R.", "state": "Andhra Pradesh", "lat": 14.867106, "lng": 79.011154, "area_sq_km": 149.351, "metro_city": null}, {"pincode": "680510", "name": "Venkitangu", "district": "Thrissur", "state": "Kerala", "lat": 10.516004, "lng": 76.107788, "area_sq_km": 12.596, "metro_city": null}, {"pincode": "271821", "name": "Bisheswarganj", "district": "Bahraich", "state": "Uttar Pradesh", "lat": 27.357332, "lng": 81.847841, "area_sq_km": 174.252, "metro_city": null}, {"pincode": "680509", "name": "Mullassery", "district": "Thrissur", "state": "Kerala", "lat": 10.536355, "lng": 76.092041, "area_sq_km": 7.559, "metro_city": null}, {"pincode": "271806", "name": "Khutehna Chauraha", "district": "Bahraich", "state": "Uttar Pradesh", "lat": 27.457047, "lng": 81.736553, "area_sq_km": 71.777, "metro_city": null}, {"pincode": "680508", "name": "Puvathur", "district": "Thrissur", "state": "Kerala", "lat": 10.546771, "lng": 76.111666, "area_sq_km": 10.047, "metro_city": null}, {"pincode": "680027", "name": "Kanimangalam", "district": "Thrissur", "state": "Kerala", "lat": 10.48287, "lng": 76.214951, "area_sq_km": 4.664, "metro_city": null}, {"pincode": "271805", "name": "Shravasti", "district": "Shrawasti", "state": "Uttar Pradesh", "lat": 27.478828, "lng": 82.020749, "area_sq_km": 113.242, "metro_city": null}, {"pincode": "271804", "name": "Laxman Nagar Bazar", "district": "Shrawasti", "state": "Uttar Pradesh", "lat": 27.673989, "lng": 81.775854, "area_sq_km": 155.082, "metro_city": null}, {"pincode": "203207", "name": "Dadri", "district": "Gautam Buddha Nagar", "state": "Uttar Pradesh", "lat": 28.563467, "lng": 77.571286, "area_sq_km": 255.628, "metro_city": null}, {"pincode": "516339", "name": "Payasampalle", "district": "Y.S.R.", "state": "Andhra Pradesh", "lat": 14.553386, "lng": 78.485785, "area_sq_km": 152.224, "metro_city": null}, {"pincode": "271803", "name": "Patna Malhipur", "district": "Shrawasti", "state": "Uttar Pradesh", "lat": 27.858265, "lng": 81.728459, "area_sq_km": 194.22, "metro_city": null}, {"pincode": "402303", "name": "Poladpur", "district": "Raigarh", "state": "Maharashtra", "lat": 17.969547, "lng": 73.526254, "area_sq_km": 367.131, "metro_city": null}, {"pincode": "516330", "name": "Veerannagattupalli", "district": "Y.S.R.", "state": "Andhra Pradesh", "lat": 14.336853, "lng": 78.498316, "area_sq_km": 8.637, "metro_city": null}, {"pincode": "202146", "name": "Mangalayatan University", "district": "Aligarh", "state": "Uttar Pradesh", "lat": 27.644214, "lng": 77.894883, "area_sq_km": 0.832, "metro_city": null}, {"pincode": "516329", "name": "Vaimpalle", "district": "Y.S.R.", "state": "Andhra Pradesh", "lat": 14.400017, "lng": 78.46648, "area_sq_km": 6.958, "metro_city": null}, {"pincode": "415408", "name": "Shirala", "district": "Sangli", "state": "Maharashtra", "lat": 17.005246, "lng": 74.081932, "area_sq_km": 204.981, "metro_city": null}, {"pincode": "680511", "name": "Chittattukara", "district": "Thrissur", "state": "Kerala", "lat": 10.57062, "lng": 76.096305, "area_sq_km": 8.082, "metro_city": null}, {"pincode": "231218", "name": "Renusagar", "district": "Sonbhadra", "state": "Uttar Pradesh", "lat": 24.169155, "lng": 82.798473, "area_sq_km": 10.431, "metro_city": null}, {"pincode": "206120", "name": "Aheripur", "district": "Etawah", "state": "Uttar Pradesh", "lat": 26.665105, "lng": 79.268449, "area_sq_km": 64.384, "metro_city": null}, {"pincode": "403102", "name": "Chorao", "district": "North Goa", "state": "Goa", "lat": 15.540321, "lng": 73.881636, "area_sq_km": 24.406, "metro_city": null}, {"pincode": "689113", "name": "Azhiyadathuchira", "district": "Pathanamthitta", "state": "Kerala", "lat": 9.391446, "lng": 76.554836, "area_sq_km": 1.176, "metro_city": null}, {"pincode": "680520", "name": "Thozhiyur", "district": "Thrissur", "state": "Kerala", "lat": 10.629324, "lng": 76.02378, "area_sq_km": 2.331, "metro_city": null}, {"pincode": "452012", "name": "Rajendra Nagar (Indore)", "district": "Indore", "state": "Madhya Pradesh", "lat": 22.661288, "lng": 75.837171, "area_sq_km": 14.944, "metro_city": null}, {"pincode": "680519", "name": "Karikkad", "district": "Thrissur", "state": "Kerala", "lat": 10.701228, "lng": 76.094406, "area_sq_km": 14.728, "metro_city": null}, {"pincode": "689112", "name": "Chathankary", "district": "Pathanamthitta", "state": "Kerala", "lat": 9.38221, "lng": 76.520086, "area_sq_km": 5.856, "metro_city": null}, {"pincode": "403002", "name": "Caranzalem", "district": "North Goa", "state": "Goa", "lat": 15.471129, "lng": 73.817239, "area_sq_km": 4.6, "metro_city": null}, {"pincode": "516321", "name": "Veerapunayanipalle", "district": "Y.S.R.", "state": "Andhra Pradesh", "lat": 14.47489, "lng": 78.464048, "area_sq_km": 132.356, "metro_city": null}, {"pincode": "689111", "name": "Tiruvalla RS", "district": "Pathanamthitta", "state": "Kerala", "lat": 9.390163, "lng": 76.577865, "area_sq_km": 0.549, "metro_city": null}, {"pincode": "689110", "name": "Podiyadi", "district": "Pathanamthitta", "state": "Kerala", "lat": 9.363502, "lng": 76.546886, "area_sq_km": 6.411, "metro_city": null}, {"pincode": "402406", "name": "Nandgaon", "district": "Raigarh", "state": "Maharashtra", "lat": 18.378466, "lng": 72.931123, "area_sq_km": 2.836, "metro_city": null}, {"pincode": "402404", "name": "Diveagar", "district": "Raigarh", "state": "Maharashtra", "lat": 18.134717, "lng": 73.020831, "area_sq_km": 35.452, "metro_city": null}, {"pincode": "689109", "name": "Tiruvanvandur", "district": "Alappuzha", "state": "Kerala", "lat": 9.342261, "lng": 76.586201, "area_sq_km": 6.955, "metro_city": null}, {"pincode": "452011", "name": "Indore R.S.S.Nagar", "district": "Indore", "state": "Madhya Pradesh", "lat": 22.747255, "lng": 75.885125, "area_sq_km": 5.368, "metro_city": null}, {"pincode": "271824", "name": "Mahasi Tahsil", "district": "Bahraich", "state": "Uttar Pradesh", "lat": 27.557238, "lng": 81.38358, "area_sq_km": 187.508, "metro_city": null}, {"pincode": "591304", "name": "Athani", "district": "Belgaum", "state": "Karnataka", "lat": 16.705098, "lng": 75.066761, "area_sq_km": 335.64, "metro_city": null}, {"pincode": "403001", "name": "Panaji", "district": "North Goa", "state": "Goa", "lat": 15.49008, "lng": 73.823128, "area_sq_km": 6.11, "metro_city": null}, {"pincode": "585290", "name": "Kumbarpeth", "district": "Yadgir", "state": "Karnataka", "lat": 16.495039, "lng": 76.71947, "area_sq_km": 546.249, "metro_city": null}, {"pincode": "283115", "name": "Jagner", "district": "Agra", "state": "Uttar Pradesh", "lat": 26.864211, "lng": 77.561409, "area_sq_km": 284.253, "metro_city": null}, {"pincode": "516311", "name": "Krishna Nagar", "district": "Y.S.R.", "state": "Andhra Pradesh", "lat": 14.606342, "lng": 78.522672, "area_sq_km": 10.029, "metro_city": null}, {"pincode": "452002", "name": "Indore City-2", "district": "Indore", "state": "Madhya Pradesh", "lat": 22.712676, "lng": 75.839834, "area_sq_km": 5.711, "metro_city": null}, {"pincode": "191121", "name": "Brein", "district": "Pulwama", "state": "Jammu & Kashmir", "lat": 34.100832, "lng": 74.895615, "area_sq_km": 11.154, "metro_city": null}, {"pincode": "680013", "name": "Kuttur (Thrissur)", "district": "Thrissur", "state": "Kerala", "lat": 10.563347, "lng": 76.192622, "area_sq_km": 11.333, "metro_city": null}, {"pincode": "516268", "name": "Veeraballi", "district": "Y.S.R.", "state": "Andhra Pradesh", "lat": 14.136717, "lng": 78.900496, "area_sq_km": 268.546, "metro_city": null}, {"pincode": "516267", "name": "Galiveedu", "district": "Y.S.R.", "state": "Andhra Pradesh", "lat": 14.06279, "lng": 78.534053, "area_sq_km": 340.827, "metro_city": null}, {"pincode": "190011", "name": "Noushara", "district": "Badgam, Srinagar", "state": "Jammu & Kashmir", "lat": 34.182927, "lng": 74.755441, "area_sq_km": 98.382, "metro_city": null}, {"pincode": "190008", "name": "Jawahar Nagar (Srinagar)", "district": "Badgam, Pulwama", "state": "Jammu & Kashmir", "lat": 34.064292, "lng": 74.819799, "area_sq_km": 4.231, "metro_city": null}, {"pincode": "516259", "name": "Balathimmayyagaripalli", "district": "Y.S.R.", "state": "Andhra Pradesh", "lat": 14.246911, "lng": 78.538481, "area_sq_km": 452.935, "metro_city": null}, {"pincode": "680012", "name": "Pullazhi", "district": "Thrissur", "state": "Kerala", "lat": 10.5071, "lng": 76.167427, "area_sq_km": 16.079, "metro_city": null}, {"pincode": "516257", "name": "Lakkireddy Palli", "district": "Y.S.R.", "state": "Andhra Pradesh", "lat": 14.182287, "lng": 78.662655, "area_sq_km": 214.111, "metro_city": null}, {"pincode": "384012", "name": "Ganpat Vidyanagar", "district": "Mahesana", "state": "Gujarat", "lat": 23.527579, "lng": 72.461947, "area_sq_km": 3.334, "metro_city": null}, {"pincode": "516247", "name": "Madhavaram (Cuddapah)", "district": "Y.S.R.", "state": "Andhra Pradesh", "lat": 14.352744, "lng": 78.955424, "area_sq_km": 204.291, "metro_city": null}, {"pincode": "516237", "name": "Siddavattam", "district": "Y.S.R.", "state": "Andhra Pradesh", "lat": 14.464593, "lng": 78.941495, "area_sq_km": 52.167, "metro_city": null}, {"pincode": "794108", "name": "Resubelpara", "district": "North Garo Hills", "state": "Meghalaya", "lat": 25.867627, "lng": 90.572172, "area_sq_km": 681.092, "metro_city": null}, {"pincode": "451667", "name": "Niwali", "district": "Barwani", "state": "Madhya Pradesh", "lat": 21.633629, "lng": 74.916592, "area_sq_km": 183.489, "metro_city": null}, {"pincode": "412214", "name": "Yavat", "district": "Pune", "state": "Maharashtra", "lat": 18.493406, "lng": 74.263409, "area_sq_km": 163.46, "metro_city": "Pune"}, {"pincode": "412215", "name": "Varvand", "district": "Pune", "state": "Maharashtra", "lat": 18.492321, "lng": 74.430823, "area_sq_km": 13.425, "metro_city": "Pune"}, {"pincode": "192301", "name": "Pulwama", "district": "Pulwama", "state": "Jammu & Kashmir", "lat": 33.988451, "lng": 74.873795, "area_sq_km": 111.457, "metro_city": null}, {"pincode": "412216", "name": "Koregaon Bhima", "district": "Pune", "state": "Maharashtra", "lat": 18.614623, "lng": 74.069086, "area_sq_km": 123.552, "metro_city": "Pune"}, {"pincode": "516310", "name": "Chilamakur", "district": "Y.S.R.", "state": "Andhra Pradesh", "lat": 14.667996, "lng": 78.473065, "area_sq_km": 90.76, "metro_city": null}, {"pincode": "516309", "name": "Yerraguntla West", "district": "Y.S.R.", "state": "Andhra Pradesh", "lat": 14.61588, "lng": 78.545336, "area_sq_km": 59.698, "metro_city": null}, {"pincode": "402207", "name": "Thal (Raigarh(MH))", "district": "Raigarh", "state": "Maharashtra", "lat": 18.687932, "lng": 72.866703, "area_sq_km": 5.578, "metro_city": null}, {"pincode": "202002", "name": "Medical College (Aligarh)", "district": "Aligarh", "state": "Uttar Pradesh", "lat": 27.844284, "lng": 78.058504, "area_sq_km": 312.008, "metro_city": null}, {"pincode": "283114", "name": "Jaitpur (Agra)", "district": "Agra", "state": "Uttar Pradesh", "lat": 26.829517, "lng": 78.723244, "area_sq_km": 242.093, "metro_city": null}, {"pincode": "402204", "name": "Nagaon", "district": "Raigarh", "state": "Maharashtra", "lat": 18.620018, "lng": 72.933235, "area_sq_km": 41.906, "metro_city": null}, {"pincode": "680026", "name": "Chiyyaram", "district": "Thrissur", "state": "Kerala", "lat": 10.488171, "lng": 76.22695, "area_sq_km": 3.34, "metro_city": null}, {"pincode": "516312", "name": "Vv Reddy Nagar", "district": "Y.S.R.", "state": "Andhra Pradesh", "lat": 14.746117, "lng": 78.480187, "area_sq_km": 26.774, "metro_city": null}, {"pincode": "201009", "name": "Vijai Nagar (Ghaziabad)", "district": "Gautam Buddha Nagar, Ghaziabad", "state": "Uttar Pradesh", "lat": 28.627099, "lng": 77.438707, "area_sq_km": 55.426, "metro_city": null}, {"pincode": "516293", "name": "Vallur (Cuddapah)", "district": "Y.S.R.", "state": "Andhra Pradesh", "lat": 14.555445, "lng": 78.704017, "area_sq_km": 140.388, "metro_city": null}, {"pincode": "516289", "name": "Kamalapuram (Cuddapah)", "district": "Y.S.R.", "state": "Andhra Pradesh", "lat": 14.599268, "lng": 78.619672, "area_sq_km": 180.196, "metro_city": null}, {"pincode": "516270", "name": "Masapet Bazar", "district": "Y.S.R.", "state": "Andhra Pradesh", "lat": 14.098248, "lng": 78.748429, "area_sq_km": 57.905, "metro_city": null}, {"pincode": "452009", "name": "Lokmanya Nagar Indore", "district": "Indore", "state": "Madhya Pradesh", "lat": 22.690103, "lng": 75.838223, "area_sq_km": 5.382, "metro_city": null}, {"pincode": "516269", "name": "Rayachoti", "district": "Y.S.R.", "state": "Andhra Pradesh", "lat": 14.047363, "lng": 78.734303, "area_sq_km": 193.368, "metro_city": null}, {"pincode": "452008", "name": "Indore  R.S.S.Nagar", "district": "Indore", "state": "Madhya Pradesh", "lat": 22.734008, "lng": 75.883854, "area_sq_km": 0.88, "metro_city": null}, {"pincode": "452007", "name": "Indore Nagar", "district": "Indore", "state": "Madhya Pradesh", "lat": 22.7084, "lng": 75.857286, "area_sq_km": 2.407, "metro_city": null}, {"pincode": "742405", "name": "Satui", "district": "Murshidabad", "state": "West Bengal", "lat": 23.983056, "lng": 88.18436, "area_sq_km": 77.993, "metro_city": null}, {"pincode": "515305", "name": "Rallahalli", "district": "Anantapur", "state": "Andhra Pradesh", "lat": 13.994485, "lng": 77.166796, "area_sq_km": 100.684, "metro_city": null}, {"pincode": "768212", "name": "Rengali", "district": "Jharsuguda, Sambalpur", "state": "Odisha", "lat": 21.680065, "lng": 84.059967, "area_sq_km": 421.804, "metro_city": null}, {"pincode": "283102", "name": "Akola (Agra)", "district": "Agra", "state": "Uttar Pradesh", "lat": 27.085385, "lng": 77.906383, "area_sq_km": 99.637, "metro_city": null}, {"pincode": "500027", "name": "Stn Kachiguda", "district": "Hyderabad", "state": "Telangana", "lat": 17.388997, "lng": 78.495982, "area_sq_km": 2.537, "metro_city": "Hyderabad"}, {"pincode": "500026", "name": "Nehrunagar (Hyderabad)", "district": "Hyderabad, Rangareddy", "state": "Telangana", "lat": 17.446566, "lng": 78.508241, "area_sq_km": 3.234, "metro_city": null}, {"pincode": "144602", "name": "Rail Coach Factory", "district": "Kapurthala", "state": "Punjab", "lat": 31.306986, "lng": 75.356894, "area_sq_km": 9.545, "metro_city": null}, {"pincode": "500025", "name": "Padmaraonagar", "district": "Hyderabad", "state": "Telangana", "lat": 17.429115, "lng": 78.505734, "area_sq_km": 2.663, "metro_city": "Hyderabad"}, {"pincode": "500024", "name": "Sahifa", "district": "Hyderabad", "state": "Telangana", "lat": 17.372078, "lng": 78.490928, "area_sq_km": 2.495, "metro_city": "Hyderabad"}, {"pincode": "500023", "name": "Yakutpura", "district": "Hyderabad", "state": "Telangana", "lat": 17.357285, "lng": 78.493011, "area_sq_km": 3.095, "metro_city": "Hyderabad"}, {"pincode": "500020", "name": "Musheerabad (ND)", "district": "Hyderabad", "state": "Telangana", "lat": 17.409842, "lng": 78.498394, "area_sq_km": 3.066, "metro_city": "Hyderabad"}, {"pincode": "500019", "name": "Lingampalli", "district": "Rangareddy", "state": "Telangana", "lat": 17.473399, "lng": 78.315032, "area_sq_km": 11.469, "metro_city": "Hyderabad"}, {"pincode": "500018", "name": "Bharat Nagar Colony", "district": "Medchal, Rangareddy", "state": "Telangana", "lat": 17.460245, "lng": 78.421893, "area_sq_km": 11.839, "metro_city": null}, {"pincode": "500017", "name": "Lallapet", "district": "Hyderabad, Medchal", "state": "Telangana", "lat": 17.43693, "lng": 78.532136, "area_sq_km": 3.479, "metro_city": null}, {"pincode": "500016", "name": "Begumpet", "district": "Hyderabad, Medchal, Rangareddy", "state": "Telangana", "lat": 17.444576, "lng": 78.462751, "area_sq_km": 7.465, "metro_city": null}, {"pincode": "500015", "name": "Trimulgherry", "district": "Hyderabad, Medchal, Rangareddy", "state": "Telangana", "lat": 17.485047, "lng": 78.501354, "area_sq_km": 22.419, "metro_city": null}, {"pincode": "500014", "name": "Hakimpet", "district": "Medchal", "state": "Telangana", "lat": 17.550442, "lng": 78.520625, "area_sq_km": 7.445, "metro_city": null}, {"pincode": "500013", "name": "Amberpet", "district": "Hyderabad, Medchal", "state": "Telangana", "lat": 17.391774, "lng": 78.529069, "area_sq_km": 10.917, "metro_city": null}, {"pincode": "500012", "name": "Begumbazar", "district": "Hyderabad", "state": "Telangana", "lat": 17.37592, "lng": 78.471183, "area_sq_km": 2.338, "metro_city": "Hyderabad"}, {"pincode": "688530", "name": "Arthingal", "district": "Alappuzha", "state": "Kerala", "lat": 9.653444, "lng": 76.309244, "area_sq_km": 15.763, "metro_city": null}, {"pincode": "500029", "name": "Ramakrishna Mutt", "district": "Hyderabad", "state": "Telangana", "lat": 17.417126, "lng": 78.477601, "area_sq_km": 8.164, "metro_city": "Hyderabad"}, {"pincode": "500031", "name": "Ibrahim Bagh Lines", "district": "Hyderabad, Rangareddy", "state": "Telangana", "lat": 17.376644, "lng": 78.388566, "area_sq_km": 6.175, "metro_city": null}, {"pincode": "607802", "name": "Neyveli Second Mines", "district": "Cuddalore", "state": "Tamil Nadu", "lat": 11.532344, "lng": 79.474902, "area_sq_km": 66.587, "metro_city": null}, {"pincode": "500045", "name": "A.Gs. Staff Quarters", "district": "Hyderabad, Rangareddy", "state": "Telangana", "lat": 17.439936, "lng": 78.426388, "area_sq_km": 4.963, "metro_city": null}, {"pincode": "500044", "name": "New Nallakunta", "district": "Hyderabad", "state": "Telangana", "lat": 17.405707, "lng": 78.508831, "area_sq_km": 3.551, "metro_city": "Hyderabad"}, {"pincode": "500043", "name": "Airforce Academy", "district": "Medchal", "state": "Telangana", "lat": 17.606923, "lng": 78.406765, "area_sq_km": 87.691, "metro_city": null}, {"pincode": "607804", "name": "Oomangalam", "district": "Cuddalore", "state": "Tamil Nadu", "lat": 11.54856, "lng": 79.407411, "area_sq_km": 30.901, "metro_city": null}, {"pincode": "500042", "name": "Hal (Hyderabad)", "district": "Medchal, Rangareddy", "state": "Telangana", "lat": 17.476899, "lng": 78.458651, "area_sq_km": 6.565, "metro_city": null}, {"pincode": "500040", "name": "Aphb Colony Moulali", "district": "Medchal", "state": "Telangana", "lat": 17.460812, "lng": 78.559297, "area_sq_km": 5.222, "metro_city": null}, {"pincode": "500039", "name": "Uppal (K.V.Rangareddy)", "district": "Medchal, Rangareddy", "state": "Telangana", "lat": 17.397914, "lng": 78.599086, "area_sq_km": 28.899, "metro_city": null}, {"pincode": "500011", "name": "Bowenpally", "district": "Hyderabad, Medchal, Rangareddy", "state": "Telangana", "lat": 17.466978, "lng": 78.475142, "area_sq_km": 6.653, "metro_city": null}, {"pincode": "500038", "name": "Sanjeev Reddy Nagar", "district": "Rangareddy", "state": "Telangana", "lat": 17.446839, "lng": 78.442057, "area_sq_km": 2.36, "metro_city": "Hyderabad"}, {"pincode": "607803", "name": "Block 26, Neyveli", "district": "Cuddalore", "state": "Tamil Nadu", "lat": 11.618433, "lng": 79.493436, "area_sq_km": 7.511, "metro_city": null}, {"pincode": "500036", "name": "Old Malakpet", "district": "Hyderabad", "state": "Telangana", "lat": 17.375827, "lng": 78.510081, "area_sq_km": 4.401, "metro_city": "Hyderabad"}, {"pincode": "500035", "name": "Huda Residential Complex", "district": "Hyderabad, Medchal, Rangareddy", "state": "Telangana", "lat": 17.359169, "lng": 78.540202, "area_sq_km": 9.398, "metro_city": null}, {"pincode": "500034", "name": "Banjara Hills", "district": "Hyderabad, Rangareddy", "state": "Telangana", "lat": 17.414572, "lng": 78.437401, "area_sq_km": 6.006, "metro_city": null}, {"pincode": "500033", "name": "Dr.B R Ambedkar O.U", "district": "Hyderabad, Rangareddy", "state": "Telangana", "lat": 17.43184, "lng": 78.403212, "area_sq_km": 9.496, "metro_city": null}, {"pincode": "402106", "name": "Nagothane", "district": "Raigarh", "state": "Maharashtra", "lat": 18.55864, "lng": 73.158289, "area_sq_km": 67.042, "metro_city": null}, {"pincode": "500032", "name": "Manuu", "district": "Rangareddy", "state": "Telangana", "lat": 17.428573, "lng": 78.353756, "area_sq_km": 17.083, "metro_city": "Hyderabad"}, {"pincode": "500037", "name": "Balanagar Township", "district": "Medchal", "state": "Telangana", "lat": 17.48539, "lng": 78.436595, "area_sq_km": 8.447, "metro_city": null}, {"pincode": "500047", "name": "Anandbagh", "district": "Hyderabad, Medchal, Rangareddy", "state": "Telangana", "lat": 17.449849, "lng": 78.537045, "area_sq_km": 7.692, "metro_city": null}, {"pincode": "500010", "name": "Bolarum Bazar", "district": "Medchal, Rangareddy", "state": "Telangana", "lat": 17.51692, "lng": 78.513874, "area_sq_km": 18.22, "metro_city": null}, {"pincode": "500009", "name": "Picket", "district": "Hyderabad, Medchal, Rangareddy", "state": "Telangana", "lat": 17.465774, "lng": 78.492494, "area_sq_km": 5.106, "metro_city": null}, {"pincode": "323307", "name": "Bhabhanagar", "district": "Chittaurgarh", "state": "Rajasthan", "lat": 24.824177, "lng": 75.697374, "area_sq_km": 354.444, "metro_city": null}, {"pincode": "144005", "name": "Jalandhar Cantt", "district": "Jalandhar", "state": "Punjab", "lat": 31.288305, "lng": 75.620443, "area_sq_km": 22.232, "metro_city": null}, {"pincode": "323306", "name": "Vikram Nagar", "district": "Chittaurgarh", "state": "Rajasthan", "lat": 24.876411, "lng": 75.501434, "area_sq_km": 319.746, "metro_city": null}, {"pincode": "695525", "name": "Puvar", "district": "Thiruvananthapuram", "state": "Kerala", "lat": 8.332648, "lng": 77.072128, "area_sq_km": 11.494, "metro_city": null}, {"pincode": "695524", "name": "Kanjiramkulam", "district": "Thiruvananthapuram", "state": "Kerala", "lat": 8.354826, "lng": 77.044818, "area_sq_km": 9.119, "metro_city": null}, {"pincode": "813109", "name": "Punsia", "district": "Banka", "state": "Bihar", "lat": 24.912419, "lng": 87.048262, "area_sq_km": 123.566, "metro_city": null}, {"pincode": "323305", "name": "Rawatbhatta Bazar", "district": "Chittaurgarh", "state": "Rajasthan", "lat": 24.924822, "lng": 75.612148, "area_sq_km": 19.627, "metro_city": null}, {"pincode": "323304", "name": "Bhenshroadgarh", "district": "Chittaurgarh", "state": "Rajasthan", "lat": 24.959439, "lng": 75.420757, "area_sq_km": 328.601, "metro_city": null}, {"pincode": "515212", "name": "Hindupur Sevamandir", "district": "Anantapur", "state": "Andhra Pradesh", "lat": 13.84127, "lng": 77.461389, "area_sq_km": 34.233, "metro_city": null}, {"pincode": "515211", "name": "Kirikera", "district": "Anantapur", "state": "Andhra Pradesh", "lat": 13.734793, "lng": 77.493334, "area_sq_km": 67.314, "metro_city": null}, {"pincode": "721516", "name": "Lalgarh (West Midnapore)", "district": "Paschim Medinipur", "state": "West Bengal", "lat": 22.594703, "lng": 87.114373, "area_sq_km": 362.572, "metro_city": null}, {"pincode": "515202", "name": "Muddireddypalli", "district": "Anantapur", "state": "Andhra Pradesh", "lat": 13.856113, "lng": 77.502161, "area_sq_km": 3.652, "metro_city": null}, {"pincode": "515201", "name": "Hindupur", "district": "Anantapur", "state": "Andhra Pradesh", "lat": 13.81408, "lng": 77.51008, "area_sq_km": 68.033, "metro_city": null}, {"pincode": "515164", "name": "Guttur", "district": "Anantapur", "state": "Andhra Pradesh", "lat": 14.162283, "lng": 77.610558, "area_sq_km": 112.278, "metro_city": null}, {"pincode": "515159", "name": "Krishnapuram (Ananthapur)", "district": "Anantapur", "state": "Andhra Pradesh", "lat": 14.312305, "lng": 77.835451, "area_sq_km": 46.743, "metro_city": null}, {"pincode": "323601", "name": "Kesoraipatan", "district": "Bundi", "state": "Rajasthan", "lat": 25.30029, "lng": 75.949804, "area_sq_km": 33.743, "metro_city": null}, {"pincode": "144043", "name": "Sarih", "district": "Jalandhar", "state": "Punjab", "lat": 31.149921, "lng": 75.555439, "area_sq_km": 12.824, "metro_city": null}, {"pincode": "572118", "name": "Gulur", "district": "Tumkur", "state": "Karnataka", "lat": 13.273049, "lng": 77.057018, "area_sq_km": 107.157, "metro_city": null}, {"pincode": "695604", "name": "Pallickal Kilimanur", "district": "Thiruvananthapuram", "state": "Kerala", "lat": 8.837635, "lng": 76.802468, "area_sq_km": 16.832, "metro_city": null}, {"pincode": "500008", "name": "Kakatiya Nagar", "district": "Hyderabad, Rangareddy", "state": "Telangana", "lat": 17.392321, "lng": 78.408859, "area_sq_km": 15.988, "metro_city": null}, {"pincode": "500007", "name": "Jama I Osmania", "district": "Hyderabad, Medchal", "state": "Telangana", "lat": 17.416226, "lng": 78.535401, "area_sq_km": 9.613, "metro_city": null}, {"pincode": "402102", "name": "Dasgaon", "district": "Raigarh", "state": "Maharashtra", "lat": 18.115198, "lng": 73.353157, "area_sq_km": 20.964, "metro_city": null}, {"pincode": "500006", "name": "Karwan Sahu", "district": "Hyderabad", "state": "Telangana", "lat": 17.372303, "lng": 78.449003, "area_sq_km": 4.645, "metro_city": "Hyderabad"}, {"pincode": "500005", "name": "Crp Camp (Hyderabad)", "district": "Hyderabad, Rangareddy", "state": "Telangana", "lat": 17.279159, "lng": 78.484669, "area_sq_km": 75.894, "metro_city": null}, {"pincode": "722148", "name": "Ranibandh", "district": "Bankura", "state": "West Bengal", "lat": 22.851165, "lng": 86.794511, "area_sq_km": 175.866, "metro_city": null}, {"pincode": "500004", "name": "Khairatabad", "district": "Hyderabad", "state": "Telangana", "lat": 17.404818, "lng": 78.461532, "area_sq_km": 4.539, "metro_city": "Hyderabad"}, {"pincode": "144504", "name": "Behram", "district": "Shahid Bhagat Singh Nagar", "state": "Punjab", "lat": 31.190401, "lng": 75.917165, "area_sq_km": 23.978, "metro_city": null}, {"pincode": "500003", "name": "Secunderabad", "district": "Hyderabad", "state": "Telangana", "lat": 17.43883, "lng": 78.489143, "area_sq_km": 6.779, "metro_city": "Hyderabad"}, {"pincode": "402101", "name": "Ambet", "district": "Raigarh", "state": "Maharashtra", "lat": 18.079103, "lng": 73.223949, "area_sq_km": 54.47, "metro_city": null}, {"pincode": "144311", "name": "Dhesian Kahna", "district": "Jalandhar", "state": "Punjab", "lat": 31.151834, "lng": 75.699008, "area_sq_km": 11.551, "metro_city": null}, {"pincode": "500001", "name": "Hyderabad G.P.O.", "district": "Hyderabad", "state": "Telangana", "lat": 17.38965, "lng": 78.471315, "area_sq_km": 3.658, "metro_city": "Hyderabad"}, {"pincode": "401703", "name": "Kosbad-hill", "district": "Palghar", "state": "Maharashtra", "lat": 20.017271, "lng": 72.800582, "area_sq_km": 4.143, "metro_city": null}, {"pincode": "144216", "name": "Talwara Township", "district": "Hoshiarpur", "state": "Punjab", "lat": 31.927023, "lng": 75.880487, "area_sq_km": 38.619, "metro_city": null}, {"pincode": "401702", "name": "Gholvad", "district": "Palghar", "state": "Maharashtra", "lat": 20.073887, "lng": 72.735011, "area_sq_km": 10.828, "metro_city": null}, {"pincode": "735211", "name": "Falakata", "district": "Alipurduar, Koch Bihar", "state": "West Bengal", "lat": 26.512594, "lng": 89.213602, "area_sq_km": 291.984, "metro_city": null}, {"pincode": "500002", "name": "Hyderabad Jubilee", "district": "Hyderabad", "state": "Telangana", "lat": 17.361134, "lng": 78.478572, "area_sq_km": 2.461, "metro_city": "Hyderabad"}, {"pincode": "452013", "name": "Indore Cat", "district": "Indore", "state": "Madhya Pradesh", "lat": 22.682496, "lng": 75.791167, "area_sq_km": 22.603, "metro_city": null}, {"pincode": "500048", "name": "Hyderguda", "district": "Hyderabad", "state": "Telangana", "lat": 17.368502, "lng": 78.430799, "area_sq_km": 1.765, "metro_city": "Hyderabad"}, {"pincode": "500050", "name": "Chandanagar", "district": "Rangareddy", "state": "Telangana", "lat": 17.495798, "lng": 78.334318, "area_sq_km": 5.867, "metro_city": "Hyderabad"}, {"pincode": "500096", "name": "Film Nagar", "district": "Hyderabad", "state": "Telangana", "lat": 17.416559, "lng": 78.417397, "area_sq_km": 3.291, "metro_city": "Hyderabad"}, {"pincode": "500095", "name": "State Bank Of India", "district": "Hyderabad", "state": "Telangana", "lat": 17.384038, "lng": 78.484326, "area_sq_km": 1.692, "metro_city": "Hyderabad"}, {"pincode": "500094", "name": "Sainikpuri", "district": "Medchal", "state": "Telangana", "lat": 17.50168, "lng": 78.556791, "area_sq_km": 11.898, "metro_city": null}, {"pincode": "500093", "name": "Vikasnagar (Hyderabad)", "district": "Hyderabad, Rangareddy", "state": "Telangana", "lat": 17.354262, "lng": 78.393245, "area_sq_km": 3.035, "metro_city": null}, {"pincode": "500092", "name": "Boduppal", "district": "Medchal", "state": "Telangana", "lat": 17.415027, "lng": 78.572426, "area_sq_km": 4.983, "metro_city": null}, {"pincode": "500090", "name": "Nizampet", "district": "Medchal, Rangareddy", "state": "Telangana", "lat": 17.533072, "lng": 78.383401, "area_sq_km": 31.981, "metro_city": null}, {"pincode": "500089", "name": "Manikonda", "district": "Hyderabad, Rangareddy", "state": "Telangana", "lat": 17.403381, "lng": 78.374259, "area_sq_km": 6.066, "metro_city": null}, {"pincode": "500088", "name": "Samskruthi", "district": "Medchal, Rangareddy", "state": "Telangana", "lat": 17.420404, "lng": 78.658711, "area_sq_km": 38.574, "metro_city": null}, {"pincode": "484113", "name": "Venkatnagar", "district": "Anuppur", "state": "Madhya Pradesh", "lat": 22.984437, "lng": 81.873436, "area_sq_km": 235.103, "metro_city": null}, {"pincode": "500087", "name": "JJ Nagar Colony", "district": "Medchal", "state": "Telangana", "lat": 17.505966, "lng": 78.534221, "area_sq_km": 1.935, "metro_city": null}, {"pincode": "500086", "name": "Don Bosco Nagar", "district": "Rangareddy", "state": "Telangana", "lat": 17.356264, "lng": 78.372238, "area_sq_km": 7.874, "metro_city": "Hyderabad"}, {"pincode": "797110", "name": "Zalukie", "district": "Peren", "state": "Nagaland", "lat": 25.554101, "lng": 93.627212, "area_sq_km": 1214.343, "metro_city": null}, {"pincode": "500085", "name": "Jntu Kukat Pally", "district": "Medchal, Rangareddy", "state": "Telangana", "lat": 17.487022, "lng": 78.382916, "area_sq_km": 5.442, "metro_city": null}, {"pincode": "500084", "name": "Kothaguda (K.V.Rangareddy)", "district": "Rangareddy", "state": "Telangana", "lat": 17.470295, "lng": 78.358169, "area_sq_km": 14.719, "metro_city": "Hyderabad"}, {"pincode": "797104", "name": "Chozuba", "district": "Phek", "state": "Nagaland", "lat": 25.72466, "lng": 94.328386, "area_sq_km": 247.683, "metro_city": null}, {"pincode": "402120", "name": "Nizampur (Raigarh(MH))", "district": "Raigarh", "state": "Maharashtra", "lat": 18.337291, "lng": 73.353785, "area_sq_km": 186.598, "metro_city": null}, {"pincode": "607807", "name": "Neyveli Thermal Bus Stand", "district": "Cuddalore", "state": "Tamil Nadu", "lat": 11.59124, "lng": 79.443431, "area_sq_km": 50.76, "metro_city": null}, {"pincode": "785609", "name": "Kaziranga National Park", "district": "Golaghat", "state": "Assam", "lat": 26.657717, "lng": 93.405147, "area_sq_km": 327.784, "metro_city": null}, {"pincode": "484114", "name": "Dhanpuri Colliery", "district": "Shahdol", "state": "Madhya Pradesh", "lat": 23.151486, "lng": 81.530118, "area_sq_km": 257.379, "metro_city": null}, {"pincode": "402126", "name": "Pipenagar", "district": "Raigarh", "state": "Maharashtra", "lat": 18.497272, "lng": 73.186305, "area_sq_km": 29.265, "metro_city": null}, {"pincode": "171014", "name": "Ghanahatti", "district": "Shimla", "state": "Himachal Pradesh", "lat": 31.131205, "lng": 77.044008, "area_sq_km": 29.784, "metro_city": null}, {"pincode": "402125", "name": "PCTS Nagothane", "district": "Raigarh", "state": "Maharashtra", "lat": 18.535636, "lng": 73.106493, "area_sq_km": 39.579, "metro_city": null}, {"pincode": "402122", "name": "Sai", "district": "Raigarh", "state": "Maharashtra", "lat": 18.17374, "lng": 73.200267, "area_sq_km": 58.58, "metro_city": null}, {"pincode": "515303", "name": "Kallumarri", "district": "Anantapur", "state": "Andhra Pradesh", "lat": 13.868608, "lng": 77.366957, "area_sq_km": 60.276, "metro_city": null}, {"pincode": "515301", "name": "Madakasira", "district": "Anantapur", "state": "Andhra Pradesh", "lat": 13.943105, "lng": 77.296385, "area_sq_km": 200.022, "metro_city": null}, {"pincode": "515291", "name": "Neelakantapuram", "district": "Anantapur, Tumkur", "state": "Andhra Pradesh", "lat": 13.917356, "lng": 77.186795, "area_sq_km": 88.936, "metro_city": null}, {"pincode": "500083", "name": "Nagaram (K.V.Rangareddy)", "district": "Medchal", "state": "Telangana", "lat": 17.503745, "lng": 78.599913, "area_sq_km": 21.684, "metro_city": null}, {"pincode": "515286", "name": "Hemavathi", "district": "Anantapur", "state": "Andhra Pradesh", "lat": 14.021888, "lng": 77.019751, "area_sq_km": 167.918, "metro_city": null}, {"pincode": "152118", "name": "Sitto", "district": "Tarn Taran", "state": "Punjab", "lat": 31.174966, "lng": 74.798572, "area_sq_km": 8.4, "metro_city": null}, {"pincode": "515271", "name": "Gudibanda (Ananthapur)", "district": "Anantapur", "state": "Andhra Pradesh", "lat": 13.917059, "lng": 77.084613, "area_sq_km": 145.714, "metro_city": null}, {"pincode": "484220", "name": "Chachai", "district": "Anuppur", "state": "Madhya Pradesh", "lat": 23.177128, "lng": 81.630737, "area_sq_km": 49.026, "metro_city": null}, {"pincode": "484120", "name": "S.K. Nagar", "district": "Shahdol", "state": "Madhya Pradesh", "lat": 23.263812, "lng": 81.438398, "area_sq_km": 56.486, "metro_city": null}, {"pincode": "785610", "name": "Furkating", "district": "Golaghat", "state": "Assam", "lat": 26.468967, "lng": 94.018294, "area_sq_km": 27.014, "metro_city": null}, {"pincode": "484117", "name": "Amlai Paper Mills", "district": "Shahdol", "state": "Madhya Pradesh", "lat": 23.304131, "lng": 81.679862, "area_sq_km": 61.583, "metro_city": null}, {"pincode": "484116", "name": "Amai Colliery", "district": "Shahdol", "state": "Madhya Pradesh", "lat": 23.201848, "lng": 81.597524, "area_sq_km": 12.374, "metro_city": null}, {"pincode": "515281", "name": "Amarapuram", "district": "Anantapur", "state": "Andhra Pradesh", "lat": 14.143587, "lng": 76.96748, "area_sq_km": 97.317, "metro_city": null}, {"pincode": "500049", "name": "Mathrusri Nagar", "district": "Medchal, Rangareddy", "state": "Telangana", "lat": 17.503302, "lng": 78.360084, "area_sq_km": 13.158, "metro_city": null}, {"pincode": "500082", "name": "I.M.Colony", "district": "Hyderabad, Rangareddy", "state": "Telangana", "lat": 17.425646, "lng": 78.453365, "area_sq_km": 2.586, "metro_city": null}, {"pincode": "515261", "name": "Parigi", "district": "Anantapur", "state": "Andhra Pradesh", "lat": 13.902983, "lng": 77.465263, "area_sq_km": 110.547, "metro_city": null}, {"pincode": "500060", "name": "Dilsukhnagar Colony", "district": "Hyderabad, Medchal, Rangareddy", "state": "Telangana", "lat": 17.372125, "lng": 78.534783, "area_sq_km": 4.212, "metro_city": null}, {"pincode": "500059", "name": "Saidabad (Hyderabad)", "district": "Hyderabad, Rangareddy", "state": "Telangana", "lat": 17.355722, "lng": 78.507836, "area_sq_km": 5.972, "metro_city": null}, {"pincode": "500058", "name": "Kanchanbagh", "district": "Hyderabad, Rangareddy", "state": "Telangana", "lat": 17.316519, "lng": 78.520068, "area_sq_km": 16.589, "metro_city": null}, {"pincode": "515231", "name": "Gorantla", "district": "Anantapur", "state": "Andhra Pradesh", "lat": 13.996164, "lng": 77.807962, "area_sq_km": 244.965, "metro_city": null}, {"pincode": "607805", "name": "Perperiyankuppam", "district": "Cuddalore", "state": "Tamil Nadu", "lat": 11.664268, "lng": 79.474002, "area_sq_km": 55.284, "metro_city": null}, {"pincode": "147004", "name": "Govt. Printing Press", "district": "Patiala", "state": "Punjab", "lat": 30.363066, "lng": 76.458832, "area_sq_km": 64.054, "metro_city": null}, {"pincode": "500056", "name": "Neredmet", "district": "Hyderabad, Medchal", "state": "Telangana", "lat": 17.480371, "lng": 78.533872, "area_sq_km": 7.23, "metro_city": null}, {"pincode": "402108", "name": "Poynad", "district": "Raigarh", "state": "Maharashtra", "lat": 18.658765, "lng": 73.011711, "area_sq_km": 112.462, "metro_city": null}, {"pincode": "500055", "name": "IDA Jeedimetla", "district": "Medchal", "state": "Telangana", "lat": 17.522261, "lng": 78.443896, "area_sq_km": 26.289, "metro_city": null}, {"pincode": "146115", "name": "Pajjodeotta", "district": "Hoshiarpur", "state": "Punjab", "lat": 31.571053, "lng": 75.707607, "area_sq_km": 14.557, "metro_city": null}, {"pincode": "500054", "name": "HMT Township", "district": "Medchal", "state": "Telangana", "lat": 17.505135, "lng": 78.441239, "area_sq_km": 5.247, "metro_city": null}, {"pincode": "500053", "name": "Falaknuma", "district": "Hyderabad, Rangareddy", "state": "Telangana", "lat": 17.335435, "lng": 78.471145, "area_sq_km": 10.38, "metro_city": null}, {"pincode": "146107", "name": "Paldi (Hoshiarpur)", "district": "Hoshiarpur", "state": "Punjab", "lat": 31.319669, "lng": 75.992445, "area_sq_km": 6.968, "metro_city": null}, {"pincode": "500052", "name": "Svpnpa", "district": "Hyderabad, Rangareddy", "state": "Telangana", "lat": 17.319977, "lng": 78.428961, "area_sq_km": 10.076, "metro_city": null}, {"pincode": "500051", "name": "Hindustan Cables Ltd", "district": "Medchal", "state": "Telangana", "lat": 17.451678, "lng": 78.610198, "area_sq_km": 13.552, "metro_city": null}, {"pincode": "500061", "name": "Sitaphalmandi", "district": "Hyderabad", "state": "Telangana", "lat": 17.425927, "lng": 78.517369, "area_sq_km": 2.544, "metro_city": "Hyderabad"}, {"pincode": "483775", "name": "Vijayraghavgarh", "district": "Katni", "state": "Madhya Pradesh", "lat": 23.931588, "lng": 80.6221, "area_sq_km": 350.196, "metro_city": null}, {"pincode": "500062", "name": "Dr As Rao Nagar", "district": "Medchal", "state": "Telangana", "lat": 17.473977, "lng": 78.567223, "area_sq_km": 12.093, "metro_city": null}, {"pincode": "500063", "name": "LIC Division", "district": "Hyderabad", "state": "Telangana", "lat": 17.404804, "lng": 78.472292, "area_sq_km": 0.703, "metro_city": "Hyderabad"}, {"pincode": "500080", "name": "Gandhinagar (Hyderabad)", "district": "Hyderabad", "state": "Telangana", "lat": 17.418127, "lng": 78.490598, "area_sq_km": 1.807, "metro_city": "Hyderabad"}, {"pincode": "500079", "name": "Vaishalinagar", "district": "Hyderabad, Rangareddy", "state": "Telangana", "lat": 17.33605, "lng": 78.532245, "area_sq_km": 6.5, "metro_city": null}, {"pincode": "500077", "name": "Kattedan Ie", "district": "Rangareddy", "state": "Telangana", "lat": 17.292941, "lng": 78.422845, "area_sq_km": 18.328, "metro_city": "Hyderabad"}, {"pincode": "500076", "name": "Snehapuri Colony", "district": "Medchal", "state": "Telangana", "lat": 17.435496, "lng": 78.565819, "area_sq_km": 9.56, "metro_city": null}, {"pincode": "515241", "name": "Budili", "district": "Anantapur", "state": "Andhra Pradesh", "lat": 13.933847, "lng": 77.703278, "area_sq_km": 118.39, "metro_city": null}, {"pincode": "500075", "name": "C.B.I.T", "district": "Rangareddy", "state": "Telangana", "lat": 17.388856, "lng": 78.309754, "area_sq_km": 102.256, "metro_city": "Hyderabad"}, {"pincode": "484110", "name": "Burhar", "district": "Shahdol", "state": "Madhya Pradesh", "lat": 23.391655, "lng": 81.557566, "area_sq_km": 430.924, "metro_city": null}, {"pincode": "500081", "name": "Cyberabad", "district": "Medchal, Rangareddy", "state": "Telangana", "lat": 17.444205, "lng": 78.380749, "area_sq_km": 11.176, "metro_city": null}, {"pincode": "500074", "name": "L B Nagar", "district": "Rangareddy", "state": "Telangana", "lat": 17.344606, "lng": 78.552531, "area_sq_km": 3.072, "metro_city": "Hyderabad"}, {"pincode": "500072", "name": "Vivekanandanagar Colony", "district": "Medchal, Rangareddy", "state": "Telangana", "lat": 17.488437, "lng": 78.408444, "area_sq_km": 15.897, "metro_city": null}, {"pincode": "500070", "name": "Vanastalipuram", "district": "Rangareddy", "state": "Telangana", "lat": 17.323515, "lng": 78.574704, "area_sq_km": 24.541, "metro_city": "Hyderabad"}, {"pincode": "500068", "name": "Gsi(Sr) Bandlaguda", "district": "Medchal, Rangareddy", "state": "Telangana", "lat": 17.368911, "lng": 78.58191, "area_sq_km": 20.785, "metro_city": null}, {"pincode": "500067", "name": "Suchitra Junction", "district": "Medchal", "state": "Telangana", "lat": 17.505177, "lng": 78.475627, "area_sq_km": 0.914, "metro_city": null}, {"pincode": "500066", "name": "High Court (Hyderabad)", "district": "Hyderabad", "state": "Telangana", "lat": 17.367091, "lng": 78.467427, "area_sq_km": 0.875, "metro_city": "Hyderabad"}, {"pincode": "500065", "name": "Fatehdarwaza", "district": "Hyderabad", "state": "Telangana", "lat": 17.350884, "lng": 78.474717, "area_sq_km": 2.622, "metro_city": "Hyderabad"}, {"pincode": "500064", "name": "Bahadurpura", "district": "Hyderabad, Rangareddy", "state": "Telangana", "lat": 17.355046, "lng": 78.450032, "area_sq_km": 7.481, "metro_city": null}, {"pincode": "500073", "name": "Srinagar Colony", "district": "Hyderabad, Rangareddy", "state": "Telangana", "lat": 17.430148, "lng": 78.436711, "area_sq_km": 1.582, "metro_city": null}, {"pincode": "515154", "name": "Pamudurthi", "district": "Anantapur", "state": "Andhra Pradesh", "lat": 14.249892, "lng": 77.927388, "area_sq_km": 281.004, "metro_city": null}, {"pincode": "689115", "name": "Thirumoolapuram", "district": "Pathanamthitta", "state": "Kerala", "lat": 9.367386, "lng": 76.584932, "area_sq_km": 1.979, "metro_city": null}, {"pincode": "452014", "name": "Khatiwala Tank", "district": "Indore", "state": "Madhya Pradesh", "lat": 22.691196, "lng": 75.861402, "area_sq_km": 3.489, "metro_city": null}, {"pincode": "638007", "name": "Cauvery Railway Station", "district": "Namakkal", "state": "Tamil Nadu", "lat": 11.331361, "lng": 77.78873, "area_sq_km": 34.066, "metro_city": null}, {"pincode": "151004", "name": "Bathinda Cantt", "district": "Bathinda", "state": "Punjab", "lat": 30.222971, "lng": 75.005834, "area_sq_km": 56.492, "metro_city": null}, {"pincode": "691543", "name": "Kaithacode", "district": "Kollam", "state": "Kerala", "lat": 9.017325, "lng": 76.687717, "area_sq_km": 7.929, "metro_city": null}, {"pincode": "691541", "name": "Madathara", "district": "Kollam", "state": "Kerala", "lat": 8.802209, "lng": 77.012528, "area_sq_km": 15.695, "metro_city": null}, {"pincode": "285123", "name": "Jalaun", "district": "Jalaun", "state": "Uttar Pradesh", "lat": 26.150393, "lng": 79.420081, "area_sq_km": 548.367, "metro_city": null}, {"pincode": "638006", "name": "Pallipalayam", "district": "Namakkal", "state": "Tamil Nadu", "lat": 11.363906, "lng": 77.750922, "area_sq_km": 6.152, "metro_city": null}, {"pincode": "691540", "name": "Veliyam", "district": "Kollam", "state": "Kerala", "lat": 8.927321, "lng": 76.760895, "area_sq_km": 9.24, "metro_city": null}, {"pincode": "691538", "name": "Vettikavala", "district": "Kollam", "state": "Kerala", "lat": 8.986561, "lng": 76.835755, "area_sq_km": 11.889, "metro_city": null}, {"pincode": "416205", "name": "Kale (Kolhapur)", "district": "Kolhapur", "state": "Maharashtra", "lat": 16.685665, "lng": 73.985331, "area_sq_km": 342.238, "metro_city": null}, {"pincode": "691537", "name": "Pooyapally", "district": "Kollam", "state": "Kerala", "lat": 8.893148, "lng": 76.760667, "area_sq_km": 26.853, "metro_city": null}, {"pincode": "607308", "name": "Gandhi Nagar (Cuddalore)", "district": "Cuddalore", "state": "Tamil Nadu", "lat": 11.622957, "lng": 79.558136, "area_sq_km": 4.325, "metro_city": null}, {"pincode": "691536", "name": "Kadakkal", "district": "Kollam", "state": "Kerala", "lat": 8.821262, "lng": 76.92264, "area_sq_km": 49.712, "metro_city": null}, {"pincode": "400021", "name": "Nariman Point", "district": "Mumbai", "state": "Maharashtra", "lat": 18.925808, "lng": 72.823759, "area_sq_km": 0.689, "metro_city": "Mumbai"}, {"pincode": "638005", "name": "Peria Agraharam", "district": "Erode", "state": "Tamil Nadu", "lat": 11.389525, "lng": 77.690664, "area_sq_km": 18.353, "metro_city": null}, {"pincode": "638004", "name": "Veerappanchatram", "district": "Erode", "state": "Tamil Nadu", "lat": 11.35504, "lng": 77.688408, "area_sq_km": 17.742, "metro_city": null}, {"pincode": "686637", "name": "Peroor", "district": "Kottayam", "state": "Kerala", "lat": 9.643535, "lng": 76.571146, "area_sq_km": 9.628, "metro_city": null}, {"pincode": "411003", "name": "Khadki", "district": "Pune", "state": "Maharashtra", "lat": 18.566363, "lng": 73.857601, "area_sq_km": 8.709, "metro_city": "Pune"}, {"pincode": "638456", "name": "Kolappalur (Erode)", "district": "Erode", "state": "Tamil Nadu", "lat": 11.366723, "lng": 77.414046, "area_sq_km": 55.496, "metro_city": null}, {"pincode": "244001", "name": "Moradabad", "district": "Moradabad", "state": "Uttar Pradesh", "lat": 28.839603, "lng": 78.766341, "area_sq_km": 160.779, "metro_city": null}, {"pincode": "686671", "name": "Pothanicaud", "district": "Ernakulam", "state": "Kerala", "lat": 10.011282, "lng": 76.714319, "area_sq_km": 58.616, "metro_city": "Kochi"}, {"pincode": "585102", "name": "GB RS", "district": "Gulbarga", "state": "Karnataka", "lat": 17.34661, "lng": 76.923633, "area_sq_km": 406.039, "metro_city": null}, {"pincode": "604502", "name": "Malayur", "district": "Tiruvannamalai", "state": "Tamil Nadu", "lat": 12.466087, "lng": 79.446101, "area_sq_km": 44.791, "metro_city": null}, {"pincode": "686669", "name": "Mudavoor", "district": "Ernakulam", "state": "Kerala", "lat": 10.003199, "lng": 76.499958, "area_sq_km": 18.623, "metro_city": "Kochi"}, {"pincode": "686666", "name": "Kothamangalam College", "district": "Ernakulam", "state": "Kerala", "lat": 10.054982, "lng": 76.610002, "area_sq_km": 60.785, "metro_city": "Kochi"}, {"pincode": "604501", "name": "Desur", "district": "Tiruvannamalai", "state": "Tamil Nadu", "lat": 12.419711, "lng": 79.475235, "area_sq_km": 88.231, "metro_city": null}, {"pincode": "246124", "name": "Dadamandi", "district": "Garhwal", "state": "Uttarakhand", "lat": 29.884807, "lng": 78.644568, "area_sq_km": 15.299, "metro_city": null}, {"pincode": "804417", "name": "Jehanabad R.S.", "district": "Jehanabad", "state": "Bihar", "lat": 25.21946, "lng": 84.96857, "area_sq_km": 139.182, "metro_city": null}, {"pincode": "628702", "name": "Mudalur", "district": "Thoothukkudi", "state": "Tamil Nadu", "lat": 8.408439, "lng": 77.959434, "area_sq_km": 24.849, "metro_city": null}, {"pincode": "686665", "name": "Elanji", "district": "Ernakulam", "state": "Kerala", "lat": 9.83677, "lng": 76.550086, "area_sq_km": 30.475, "metro_city": "Kochi"}, {"pincode": "411004", "name": "A.R. Shala", "district": "Pune", "state": "Maharashtra", "lat": 18.517109, "lng": 73.836549, "area_sq_km": 3.775, "metro_city": "Pune"}, {"pincode": "711405", "name": "Domjur", "district": "Haora", "state": "West Bengal", "lat": 22.649798, "lng": 88.21655, "area_sq_km": 35.515, "metro_city": null}, {"pincode": "638462", "name": "Vemandampalayam", "district": "Erode, Tiruppur", "state": "Tamil Nadu", "lat": 11.337795, "lng": 77.243472, "area_sq_km": 58.72, "metro_city": null}, {"pincode": "686640", "name": "Kozha", "district": "Kottayam", "state": "Kerala", "lat": 9.768532, "lng": 76.56816, "area_sq_km": 3.506, "metro_city": null}, {"pincode": "638457", "name": "Kurumandur", "district": "Erode", "state": "Tamil Nadu", "lat": 11.431807, "lng": 77.339528, "area_sq_km": 25.847, "metro_city": null}, {"pincode": "247663", "name": "Lokoshed Laksar", "district": "Hardwar", "state": "Uttarakhand", "lat": 29.713256, "lng": 78.036082, "area_sq_km": 324.494, "metro_city": null}, {"pincode": "638003", "name": "Karungalpalayam", "district": "Erode", "state": "Tamil Nadu", "lat": 11.357531, "lng": 77.731018, "area_sq_km": 7.213, "metro_city": null}, {"pincode": "638002", "name": "Erode Railway Colony", "district": "Erode", "state": "Tamil Nadu", "lat": 11.315814, "lng": 77.739754, "area_sq_km": 26.736, "metro_city": null}, {"pincode": "507128", "name": "Sarapaka", "district": "Bhadradri Kothagudem", "state": "Telangana", "lat": 17.756113, "lng": 80.838768, "area_sq_km": 23.956, "metro_city": null}, {"pincode": "365565", "name": "Krankach", "district": "Amreli", "state": "Gujarat", "lat": 21.083133, "lng": 71.557758, "area_sq_km": 102.703, "metro_city": null}, {"pincode": "515571", "name": "Tanakallu", "district": "Anantapur", "state": "Andhra Pradesh", "lat": 13.889146, "lng": 78.216702, "area_sq_km": 348.496, "metro_city": null}, {"pincode": "515561", "name": "Obula Devara Cheruvu", "district": "Anantapur", "state": "Andhra Pradesh", "lat": 13.994323, "lng": 77.975222, "area_sq_km": 188.348, "metro_city": null}, {"pincode": "686610", "name": "Peruva", "district": "Kottayam", "state": "Kerala", "lat": 9.822711, "lng": 76.495243, "area_sq_km": 27.255, "metro_city": null}, {"pincode": "410503", "name": "Manchar", "district": "Pune", "state": "Maharashtra", "lat": 19.007366, "lng": 73.93675, "area_sq_km": 116.621, "metro_city": "Pune"}, {"pincode": "691532", "name": "Valakom", "district": "Kollam", "state": "Kerala", "lat": 8.944916, "lng": 76.833902, "area_sq_km": 22.614, "metro_city": null}, {"pincode": "691526", "name": "Enathu", "district": "Pathanamthitta", "state": "Kerala", "lat": 9.099231, "lng": 76.704491, "area_sq_km": 11.341, "metro_city": null}, {"pincode": "691525", "name": "Thattayil", "district": "Pathanamthitta", "state": "Kerala", "lat": 9.185545, "lng": 76.742249, "area_sq_km": 4.412, "metro_city": null}, {"pincode": "410403", "name": "Kaivalyadham", "district": "Pune", "state": "Maharashtra", "lat": 18.754886, "lng": 73.439294, "area_sq_km": 3.578, "metro_city": "Pune"}, {"pincode": "410402", "name": "Ins Shivaji Lonavale", "district": "Pune", "state": "Maharashtra", "lat": 18.737845, "lng": 73.384521, "area_sq_km": 47.089, "metro_city": "Pune"}, {"pincode": "577115", "name": "Bhadra Reservoir Project", "district": "Shimoga", "state": "Karnataka", "lat": 13.775844, "lng": 75.589105, "area_sq_km": 167.369, "metro_city": null}, {"pincode": "691524", "name": "Elamannur", "district": "Kollam", "state": "Kerala", "lat": 9.035258, "lng": 76.703636, "area_sq_km": 12.92, "metro_city": null}, {"pincode": "403719", "name": "Sem-rachol Soso", "district": "South Goa", "state": "Goa", "lat": 15.317266, "lng": 74.004955, "area_sq_km": 2.598, "metro_city": null}, {"pincode": "403718", "name": "Loutolim", "district": "South Goa", "state": "Goa", "lat": 15.347326, "lng": 73.976642, "area_sq_km": 21.623, "metro_city": null}, {"pincode": "691523", "name": "Adur( Kla)", "district": "Pathanamthitta", "state": "Kerala", "lat": 9.151518, "lng": 76.732773, "area_sq_km": 9.071, "metro_city": null}, {"pincode": "577401", "name": "Sagar", "district": "Shimoga", "state": "Karnataka", "lat": 14.197953, "lng": 75.009301, "area_sq_km": 197.927, "metro_city": null}, {"pincode": "577418", "name": "Hosanagar", "district": "Shimoga", "state": "Karnataka", "lat": 13.905459, "lng": 75.114915, "area_sq_km": 302.424, "metro_city": null}, {"pincode": "686611", "name": "Kallara (Kottayam)", "district": "Kottayam", "state": "Kerala", "lat": 9.712072, "lng": 76.463755, "area_sq_km": 28.414, "metro_city": null}, {"pincode": "686616", "name": "Newsprint Nagar", "district": "Kottayam", "state": "Kerala", "lat": 9.818081, "lng": 76.454155, "area_sq_km": 15.349, "metro_city": null}, {"pincode": "400017", "name": "Dharavi Road", "district": "Mumbai", "state": "Maharashtra", "lat": 19.045962, "lng": 72.854517, "area_sq_km": 3.493, "metro_city": "Mumbai"}, {"pincode": "304502", "name": "Malpura", "district": "Tonk", "state": "Rajasthan", "lat": 26.298814, "lng": 75.327545, "area_sq_km": 889.236, "metro_city": null}, {"pincode": "416312", "name": "Tasgaon M.D.G", "district": "Sangli", "state": "Maharashtra", "lat": 17.086644, "lng": 74.615382, "area_sq_km": 299.265, "metro_city": null}, {"pincode": "637505", "name": "Vennandur", "district": "Namakkal", "state": "Tamil Nadu", "lat": 11.502659, "lng": 78.110403, "area_sq_km": 61.582, "metro_city": null}, {"pincode": "283122", "name": "Kiraoli", "district": "Agra", "state": "Uttar Pradesh", "lat": 27.079332, "lng": 77.80763, "area_sq_km": 92.439, "metro_city": null}, {"pincode": "686635", "name": "Marangattupally", "district": "Kottayam", "state": "Kerala", "lat": 9.753268, "lng": 76.623638, "area_sq_km": 15.866, "metro_city": null}, {"pincode": "410512", "name": "Peth (Pune)", "district": "Pune", "state": "Maharashtra", "lat": 18.942166, "lng": 73.91485, "area_sq_km": 60.833, "metro_city": "Pune"}, {"pincode": "328028", "name": "Keshar Bagh", "district": "Dhaulpur", "state": "Rajasthan", "lat": 26.614241, "lng": 77.8138, "area_sq_km": 39.372, "metro_city": null}, {"pincode": "686632", "name": "Kanakari", "district": "Kottayam", "state": "Kerala", "lat": 9.718113, "lng": 76.529841, "area_sq_km": 23.707, "metro_city": null}, {"pincode": "410510", "name": "Loni Dhamani", "district": "Pune", "state": "Maharashtra", "lat": 18.885293, "lng": 74.085948, "area_sq_km": 27.384, "metro_city": "Pune"}, {"pincode": "410509", "name": "Dimbhe Colony", "district": "Pune", "state": "Maharashtra", "lat": 19.121884, "lng": 73.64435, "area_sq_km": 316.527, "metro_city": "Pune"}, {"pincode": "515581", "name": "Talupula", "district": "Anantapur", "state": "Andhra Pradesh", "lat": 14.238454, "lng": 78.257783, "area_sq_km": 442.399, "metro_city": null}, {"pincode": "284127", "name": "Bhattagaon", "district": "Jhansi", "state": "Uttar Pradesh", "lat": 25.417159, "lng": 78.609666, "area_sq_km": 16.059, "metro_city": null}, {"pincode": "507002", "name": "Industrial Area (Khammam)", "district": "Khammam", "state": "Telangana", "lat": 17.288057, "lng": 80.195931, "area_sq_km": 70.606, "metro_city": null}, {"pincode": "686630", "name": "Thellakom", "district": "Kottayam", "state": "Kerala", "lat": 9.647023, "lng": 76.550285, "area_sq_km": 2.511, "metro_city": null}, {"pincode": "230404", "name": "Vishwanathganj", "district": "Pratapgarh", "state": "Uttar Pradesh", "lat": 25.783262, "lng": 81.925044, "area_sq_km": 7.151, "metro_city": null}, {"pincode": "410511", "name": "Shiroli B K", "district": "Pune", "state": "Maharashtra", "lat": 19.217041, "lng": 73.919032, "area_sq_km": 15.052, "metro_city": "Pune"}, {"pincode": "248141", "name": "Ghangora", "district": "Dehradun", "state": "Uttarakhand", "lat": 30.389329, "lng": 77.999346, "area_sq_km": 21.536, "metro_city": null}, {"pincode": "248171", "name": "Majra (Dehradun)", "district": "Dehradun", "state": "Uttarakhand", "lat": 30.295185, "lng": 77.977562, "area_sq_km": 9.071, "metro_city": null}, {"pincode": "328029", "name": "Marena", "district": "Dhaulpur", "state": "Rajasthan", "lat": 26.759181, "lng": 78.057748, "area_sq_km": 169.513, "metro_city": null}, {"pincode": "303601", "name": "Amarsar", "district": "Jaipur", "state": "Rajasthan", "lat": 27.354177, "lng": 75.84141, "area_sq_km": 71.86, "metro_city": "Jaipur"}, {"pincode": "303511", "name": "Didwana", "district": "Dausa", "state": "Rajasthan", "lat": 26.621029, "lng": 76.365657, "area_sq_km": 198.591, "metro_city": null}, {"pincode": "485114", "name": "Sagmania", "district": "Satna", "state": "Madhya Pradesh", "lat": 24.649333, "lng": 80.842812, "area_sq_km": 80.791, "metro_city": null}, {"pincode": "731123", "name": "Jangaldubrajpur", "district": "Birbhum", "state": "West Bengal", "lat": 23.829481, "lng": 87.333615, "area_sq_km": 209.212, "metro_city": null}, {"pincode": "485113", "name": "Madhogarh (Satna)", "district": "Satna", "state": "Madhya Pradesh", "lat": 24.536503, "lng": 80.93165, "area_sq_km": 50.22, "metro_city": null}, {"pincode": "571431", "name": "Melukote", "district": "Mandya", "state": "Karnataka", "lat": 12.668654, "lng": 76.662324, "area_sq_km": 74.485, "metro_city": null}, {"pincode": "485112", "name": "Babupur", "district": "Satna", "state": "Madhya Pradesh", "lat": 24.607858, "lng": 80.959002, "area_sq_km": 84.633, "metro_city": null}, {"pincode": "413504", "name": "Bhoom", "district": "Osmanabad", "state": "Maharashtra", "lat": 18.480849, "lng": 75.597676, "area_sq_km": 684.936, "metro_city": null}, {"pincode": "485111", "name": "Ramvan", "district": "Satna", "state": "Madhya Pradesh", "lat": 24.690336, "lng": 81.063587, "area_sq_km": 343.178, "metro_city": null}, {"pincode": "495556", "name": "Kharod", "district": "Janjgir - Champa", "state": "Chhattisgarh", "lat": 21.790696, "lng": 82.553588, "area_sq_km": 168.322, "metro_city": null}, {"pincode": "614704", "name": "Mutupet", "district": "Thanjavur, Thiruvarur", "state": "Tamil Nadu", "lat": 10.376308, "lng": 79.476032, "area_sq_km": 102.247, "metro_city": null}, {"pincode": "760007", "name": "Berhampur University", "district": "Ganjam", "state": "Odisha", "lat": 19.317272, "lng": 84.8803, "area_sq_km": 31.589, "metro_city": null}, {"pincode": "793004", "name": "Laban", "district": "East Khasi Hills", "state": "Meghalaya", "lat": 25.587135, "lng": 91.88723, "area_sq_km": 6.808, "metro_city": null}, {"pincode": "781131", "name": "Rani (Kamrup)", "district": "Ribhoi", "state": "Meghalaya", "lat": 25.88128, "lng": 91.526504, "area_sq_km": 335.36, "metro_city": null}, {"pincode": "495555", "name": "Ujwal Nagar (Bilaspur)", "district": "Bilaspur", "state": "Chhattisgarh", "lat": 22.141421, "lng": 82.307523, "area_sq_km": 4.545, "metro_city": null}, {"pincode": "303602", "name": "Badhal", "district": "Jaipur", "state": "Rajasthan", "lat": 27.278515, "lng": 75.485217, "area_sq_km": 138.294, "metro_city": "Jaipur"}, {"pincode": "303603", "name": "Renwal", "district": "Jaipur", "state": "Rajasthan", "lat": 27.180652, "lng": 75.401302, "area_sq_km": 168.567, "metro_city": "Jaipur"}, {"pincode": "303604", "name": "Sambhar Lake", "district": "Jaipur", "state": "Rajasthan", "lat": 26.913258, "lng": 75.170556, "area_sq_km": 343.771, "metro_city": "Jaipur"}, {"pincode": "600021", "name": "Washermanpet", "district": "Chennai", "state": "Tamil Nadu", "lat": 13.117575, "lng": 80.280368, "area_sq_km": 3.466, "metro_city": "Chennai"}, {"pincode": "303706", "name": "Kalwad", "district": "Jaipur", "state": "Rajasthan", "lat": 26.98386, "lng": 75.57619, "area_sq_km": 156.783, "metro_city": "Jaipur"}, {"pincode": "636007", "name": "Salem Dt. Court Buildings", "district": "Salem", "state": "Tamil Nadu", "lat": 11.671452, "lng": 78.159873, "area_sq_km": 6.643, "metro_city": null}, {"pincode": "636006", "name": "Sanjeevarayanpettai", "district": "Salem", "state": "Tamil Nadu", "lat": 11.636588, "lng": 78.152597, "area_sq_km": 6.623, "metro_city": null}, {"pincode": "303704", "name": "Jaitpura I A", "district": "Jaipur", "state": "Rajasthan", "lat": 27.100332, "lng": 75.776159, "area_sq_km": 88.691, "metro_city": "Jaipur"}, {"pincode": "636005", "name": "Suramangalam", "district": "Salem", "state": "Tamil Nadu", "lat": 11.672304, "lng": 78.12376, "area_sq_km": 5.301, "metro_city": null}, {"pincode": "303702", "name": "Chomu", "district": "Jaipur", "state": "Rajasthan", "lat": 27.176682, "lng": 75.69576, "area_sq_km": 70.391, "metro_city": "Jaipur"}, {"pincode": "636004", "name": "Marakkadai", "district": "Salem", "state": "Tamil Nadu", "lat": 11.69612, "lng": 78.128441, "area_sq_km": 11.016, "metro_city": null}, {"pincode": "495554", "name": "Pamgarh", "district": "Janjgir - Champa", "state": "Chhattisgarh", "lat": 21.846155, "lng": 82.448526, "area_sq_km": 294.994, "metro_city": null}, {"pincode": "249204", "name": "S.N. Temple", "district": "Dehradun", "state": "Uttarakhand", "lat": 30.069718, "lng": 78.223345, "area_sq_km": 35.298, "metro_city": null}, {"pincode": "303701", "name": "Jahota", "district": "Jaipur", "state": "Rajasthan", "lat": 27.090992, "lng": 75.634829, "area_sq_km": 168.845, "metro_city": "Jaipur"}, {"pincode": "413506", "name": "Bembli", "district": "Osmanabad", "state": "Maharashtra", "lat": 18.090415, "lng": 76.221912, "area_sq_km": 229.608, "metro_city": null}, {"pincode": "413505", "name": "Sonari (Osmanabad)", "district": "Osmanabad", "state": "Maharashtra", "lat": 18.446236, "lng": 75.395991, "area_sq_km": 385.287, "metro_city": null}, {"pincode": "635852", "name": "Natrampalli", "district": "Vellore", "state": "Tamil Nadu", "lat": 12.603981, "lng": 78.480572, "area_sq_km": 67.359, "metro_city": null}, {"pincode": "363310", "name": "Dhrangadhra", "district": "Morvi, Surendranagar", "state": "Gujarat", "lat": 22.956019, "lng": 71.406912, "area_sq_km": 1362.303, "metro_city": null}, {"pincode": "600022", "name": "Rajbhavan (Chennai)", "district": "Chennai", "state": "Tamil Nadu", "lat": 13.00085, "lng": 80.227561, "area_sq_km": 3.666, "metro_city": "Chennai"}, {"pincode": "363035", "name": "Wadhwancity Ind. Estate", "district": "Surendranagar", "state": "Gujarat", "lat": 22.722135, "lng": 71.667807, "area_sq_km": 4.176, "metro_city": null}, {"pincode": "272153", "name": "Bansi", "district": "Siddharthnagar", "state": "Uttar Pradesh", "lat": 27.174691, "lng": 82.87962, "area_sq_km": 509.564, "metro_city": null}, {"pincode": "845418", "name": "Dhaka", "district": "Purba Champaran", "state": "Bihar", "lat": 26.660492, "lng": 85.117469, "area_sq_km": 233.399, "metro_city": null}, {"pincode": "713362", "name": "Toposi", "district": "West Bardhaman", "state": "West Bengal", "lat": 23.704636, "lng": 87.13776, "area_sq_km": 48.74, "metro_city": null}, {"pincode": "600011", "name": "Sembiam", "district": "Chennai", "state": "Tamil Nadu", "lat": 13.113615, "lng": 80.241659, "area_sq_km": 2.859, "metro_city": "Chennai"}, {"pincode": "502375", "name": "Palamakula", "district": "Siddipet", "state": "Telangana", "lat": 18.088155, "lng": 78.979983, "area_sq_km": 97.314, "metro_city": null}, {"pincode": "262406", "name": "Nawabganj (Bareilly)", "district": "Bareilly", "state": "Uttar Pradesh", "lat": 28.476743, "lng": 79.649404, "area_sq_km": 326.897, "metro_city": null}, {"pincode": "502372", "name": "Kondapak", "district": "Siddipet", "state": "Telangana", "lat": 17.992145, "lng": 78.833774, "area_sq_km": 99.578, "metro_city": null}, {"pincode": "502371", "name": "Nizampet (Sangareddy)", "district": "Sangareddy", "state": "Telangana", "lat": 18.138334, "lng": 77.8609, "area_sq_km": 126.553, "metro_city": null}, {"pincode": "581421", "name": "Kaikini", "district": "Uttara Kannada", "state": "Karnataka", "lat": 14.091708, "lng": 74.560837, "area_sq_km": 174.334, "metro_city": null}, {"pincode": "502345", "name": "Kamkole", "district": "Sangareddy", "state": "Telangana", "lat": 17.720712, "lng": 77.85183, "area_sq_km": 199.729, "metro_city": null}, {"pincode": "413410", "name": "Manegaon", "district": "Solapur", "state": "Maharashtra", "lat": 17.981099, "lng": 75.638719, "area_sq_km": 96.63, "metro_city": null}, {"pincode": "394540", "name": "Olpad", "district": "Surat", "state": "Gujarat", "lat": 21.372293, "lng": 72.753405, "area_sq_km": 282.684, "metro_city": null}, {"pincode": "814166", "name": "Fatehpur (Jamtara)", "district": "Jamtara", "state": "Jharkhand", "lat": 24.042777, "lng": 87.010746, "area_sq_km": 301.609, "metro_city": null}, {"pincode": "251003", "name": "Industrial Estate (Muzaffarnagar)", "district": "Muzaffarnagar", "state": "Uttar Pradesh", "lat": 29.413275, "lng": 77.688819, "area_sq_km": 23.65, "metro_city": null}, {"pincode": "502336", "name": "Kadlakal", "district": "Medak, Siddipet", "state": "Telangana", "lat": 17.743232, "lng": 78.506128, "area_sq_km": 133.062, "metro_city": null}, {"pincode": "413405", "name": "Yedshi", "district": "Osmanabad", "state": "Maharashtra", "lat": 18.339899, "lng": 75.978149, "area_sq_km": 135.854, "metro_city": null}, {"pincode": "250205", "name": "Mohiuddinpur", "district": "Meerut", "state": "Uttar Pradesh", "lat": 28.907309, "lng": 77.597909, "area_sq_km": 47.034, "metro_city": null}, {"pincode": "413404", "name": "Pangri", "district": "Solapur", "state": "Maharashtra", "lat": 18.275784, "lng": 75.87389, "area_sq_km": 211.382, "metro_city": null}, {"pincode": "502335", "name": "Masaipet", "district": "Medak, Siddipet", "state": "Telangana", "lat": 17.847194, "lng": 78.500331, "area_sq_km": 170.163, "metro_city": null}, {"pincode": "793108", "name": "Cherrapunjee", "district": "East Khasi Hills", "state": "Meghalaya", "lat": 25.231482, "lng": 91.72572, "area_sq_km": 107.156, "metro_city": null}, {"pincode": "822114", "name": "Garhwa", "district": "Garhwa", "state": "Jharkhand", "lat": 24.095367, "lng": 83.723124, "area_sq_km": 754.357, "metro_city": null}, {"pincode": "502381", "name": "Rangampet", "district": "Medak", "state": "Telangana", "lat": 17.941613, "lng": 78.137487, "area_sq_km": 134.628, "metro_city": null}, {"pincode": "262701", "name": "Kheri", "district": "Kheri", "state": "Uttar Pradesh", "lat": 28.084677, "lng": 80.594449, "area_sq_km": 612.841, "metro_city": null}, {"pincode": "790116", "name": "Tenga Market", "district": "West Kameng", "state": "Arunachal Pradesh", "lat": 27.223209, "lng": 92.474507, "area_sq_km": 392.043, "metro_city": null}, {"pincode": "635851", "name": "Jolarpettai", "district": "Vellore", "state": "Tamil Nadu", "lat": 12.58158, "lng": 78.585785, "area_sq_km": 55.802, "metro_city": null}, {"pincode": "503111", "name": "Kamareddy", "district": "Kamareddy", "state": "Telangana", "lat": 18.319584, "lng": 78.331693, "area_sq_km": 14.284, "metro_city": null}, {"pincode": "503110", "name": "Rajampet", "district": "Kamareddy", "state": "Telangana", "lat": 18.225344, "lng": 78.260756, "area_sq_km": 140.07, "metro_city": null}, {"pincode": "736133", "name": "Baneswar", "district": "Koch Bihar", "state": "West Bengal", "lat": 26.408438, "lng": 89.491828, "area_sq_km": 191.186, "metro_city": null}, {"pincode": "503108", "name": "Nagireddypet", "district": "Kamareddy", "state": "Telangana", "lat": 18.110996, "lng": 78.119205, "area_sq_km": 62.873, "metro_city": null}, {"pincode": "582209", "name": "Ron", "district": "Gadag", "state": "Karnataka", "lat": 15.69952, "lng": 75.72966, "area_sq_km": 279.838, "metro_city": null}, {"pincode": "263620", "name": "Kausani Estate", "district": "Bageshwar", "state": "Uttarakhand", "lat": 29.852782, "lng": 79.597528, "area_sq_km": 2.823, "metro_city": null}, {"pincode": "794102", "name": "Baghmara", "district": "South Garo Hills", "state": "Meghalaya", "lat": 25.326924, "lng": 90.630067, "area_sq_km": 532.818, "metro_city": null}, {"pincode": "794101", "name": "Araimile", "district": "West Garo Hills", "state": "Meghalaya", "lat": 25.504476, "lng": 90.208149, "area_sq_km": 66.577, "metro_city": null}, {"pincode": "734001", "name": "Siliguri", "district": "Darjiling, Jalpaiguri", "state": "West Bengal", "lat": 26.734496, "lng": 88.43247, "area_sq_km": 15.932, "metro_city": null}, {"pincode": "403504", "name": "Bicholim", "district": "North Goa", "state": "Goa", "lat": 15.58827, "lng": 73.950412, "area_sq_km": 67.079, "metro_city": null}, {"pincode": "721135", "name": "Kultikri", "district": "Paschim Medinipur", "state": "West Bengal", "lat": 22.209739, "lng": 87.162533, "area_sq_km": 191.14, "metro_city": null}, {"pincode": "364070", "name": "Koliyak", "district": "Bhavnagar", "state": "Gujarat", "lat": 21.58902, "lng": 72.26786, "area_sq_km": 91.475, "metro_city": null}, {"pincode": "794005", "name": "Dobasipara", "district": "South Garo Hills, West Garo Hills", "state": "Meghalaya", "lat": 25.39457, "lng": 90.321158, "area_sq_km": 782.97, "metro_city": null}, {"pincode": "794003", "name": "Dadenggre", "district": "West Garo Hills", "state": "Meghalaya", "lat": 25.69257, "lng": 90.220434, "area_sq_km": 88.713, "metro_city": null}, {"pincode": "503102", "name": "Jangampalli", "district": "Kamareddy", "state": "Telangana", "lat": 18.254943, "lng": 78.346457, "area_sq_km": 110.243, "metro_city": null}, {"pincode": "403717", "name": "Carmona", "district": "South Goa", "state": "Goa", "lat": 15.201101, "lng": 73.953143, "area_sq_km": 6.339, "metro_city": null}, {"pincode": "201310", "name": "Knowledge Park-I", "district": "Gautam Buddha Nagar", "state": "Uttar Pradesh", "lat": 28.481113, "lng": 77.545539, "area_sq_km": 50.924, "metro_city": null}, {"pincode": "691521", "name": "Kulakada", "district": "Kollam", "state": "Kerala", "lat": 9.065852, "lng": 76.741095, "area_sq_km": 19.264, "metro_city": null}, {"pincode": "516362", "name": "Khadarabad", "district": "Y.S.R.", "state": "Andhra Pradesh", "lat": 14.752058, "lng": 78.595677, "area_sq_km": 69.72, "metro_city": null}, {"pincode": "516361", "name": "Holmespet", "district": "Y.S.R.", "state": "Andhra Pradesh", "lat": 14.738986, "lng": 78.522826, "area_sq_km": 120.254, "metro_city": null}, {"pincode": "403403", "name": "Piedade", "district": "North Goa", "state": "Goa", "lat": 15.530727, "lng": 73.911875, "area_sq_km": 24.978, "metro_city": null}, {"pincode": "441801", "name": "Goregaon (Gondia)", "district": "Gondiya", "state": "Maharashtra", "lat": 21.304522, "lng": 80.205253, "area_sq_km": 480.952, "metro_city": null}, {"pincode": "403402", "name": "Velha-goa", "district": "North Goa", "state": "Goa", "lat": 15.501525, "lng": 73.918368, "area_sq_km": 11.889, "metro_city": null}, {"pincode": "516360", "name": "Proddatur", "district": "Y.S.R.", "state": "Andhra Pradesh", "lat": 14.778163, "lng": 78.550345, "area_sq_km": 50.779, "metro_city": null}, {"pincode": "210426", "name": "Kulpahar", "district": "Mahoba", "state": "Uttar Pradesh", "lat": 25.220812, "lng": 79.581585, "area_sq_km": 496.859, "metro_city": null}, {"pincode": "516359", "name": "Korrapadu", "district": "Y.S.R.", "state": "Andhra Pradesh", "lat": 14.8765, "lng": 78.556765, "area_sq_km": 157.39, "metro_city": null}, {"pincode": "403106", "name": "Sant Estevam", "district": "North Goa", "state": "Goa", "lat": 15.53389, "lng": 73.943943, "area_sq_km": 7.128, "metro_city": null}, {"pincode": "403105", "name": "Pale", "district": "North Goa", "state": "Goa", "lat": 15.47827, "lng": 74.063345, "area_sq_km": 16.441, "metro_city": null}, {"pincode": "516356", "name": "Chapadu", "district": "Y.S.R.", "state": "Andhra Pradesh", "lat": 14.756131, "lng": 78.64694, "area_sq_km": 61.114, "metro_city": null}, {"pincode": "516355", "name": "Kallur (Cuddapah)", "district": "Y.S.R.", "state": "Andhra Pradesh", "lat": 14.692294, "lng": 78.652424, "area_sq_km": 42.039, "metro_city": null}, {"pincode": "325225", "name": "Harnaoda Shahji", "district": "Baran", "state": "Rajasthan", "lat": 24.443758, "lng": 76.702112, "area_sq_km": 26.588, "metro_city": null}, {"pincode": "325224", "name": "Kelwara", "district": "Baran", "state": "Rajasthan", "lat": 25.046777, "lng": 76.823274, "area_sq_km": 751.667, "metro_city": null}, {"pincode": "325223", "name": "Atone", "district": "Baran", "state": "Rajasthan", "lat": 24.787659, "lng": 76.519509, "area_sq_km": 332.628, "metro_city": null}, {"pincode": "600077", "name": "Thiruverkadu", "district": "Thiruvallur", "state": "Tamil Nadu", "lat": 13.077447, "lng": 80.13166, "area_sq_km": 19.462, "metro_city": null}, {"pincode": "242001", "name": "Shahjahanpur", "district": "Shahjahanpur", "state": "Uttar Pradesh", "lat": 27.921542, "lng": 79.940232, "area_sq_km": 420.098, "metro_city": null}, {"pincode": "403501", "name": "Porvorim", "district": "North Goa", "state": "Goa", "lat": 15.558262, "lng": 73.828843, "area_sq_km": 15.304, "metro_city": null}, {"pincode": "403502", "name": "Tivim", "district": "North Goa", "state": "Goa", "lat": 15.624989, "lng": 73.860376, "area_sq_km": 22.614, "metro_city": null}, {"pincode": "441702", "name": "Navegaon Bandh", "district": "Gondiya", "state": "Maharashtra", "lat": 20.832205, "lng": 80.166779, "area_sq_km": 705.219, "metro_city": null}, {"pincode": "843327", "name": "Riga", "district": "Sitamarhi", "state": "Bihar", "lat": 26.622094, "lng": 85.413687, "area_sq_km": 122.885, "metro_city": null}, {"pincode": "403517", "name": "Siolim", "district": "North Goa", "state": "Goa", "lat": 15.629913, "lng": 73.785422, "area_sq_km": 22.733, "metro_city": null}, {"pincode": "843324", "name": "Parihar", "district": "Sitamarhi", "state": "Bihar", "lat": 26.743665, "lng": 85.67222, "area_sq_km": 215.082, "metro_city": null}, {"pincode": "689506", "name": "Pandanad", "district": "Alappuzha", "state": "Kerala", "lat": 9.330155, "lng": 76.568419, "area_sq_km": 7.294, "metro_city": null}, {"pincode": "689505", "name": "Mulakuzha", "district": "Alappuzha", "state": "Kerala", "lat": 9.278132, "lng": 76.675496, "area_sq_km": 6.181, "metro_city": null}, {"pincode": "689504", "name": "Karakkad", "district": "Alappuzha", "state": "Kerala", "lat": 9.286113, "lng": 76.650402, "area_sq_km": 8.191, "metro_city": null}, {"pincode": "516350", "name": "Tallapalle", "district": "Y.S.R.", "state": "Andhra Pradesh", "lat": 14.367249, "lng": 78.404049, "area_sq_km": 170.316, "metro_city": null}, {"pincode": "403516", "name": "Calangute", "district": "North Goa", "state": "Goa", "lat": 15.551672, "lng": 73.767824, "area_sq_km": 16.108, "metro_city": null}, {"pincode": "689502", "name": "Thumpamon", "district": "Pathanamthitta", "state": "Kerala", "lat": 9.217481, "lng": 76.71612, "area_sq_km": 8.871, "metro_city": null}, {"pincode": "689501", "name": "Pandalam Medical Mission", "district": "Pathanamthitta", "state": "Kerala", "lat": 9.204544, "lng": 76.686912, "area_sq_km": 39.943, "metro_city": null}, {"pincode": "516432", "name": "Vaddirala", "district": "Y.S.R.", "state": "Andhra Pradesh", "lat": 14.986668, "lng": 78.279376, "area_sq_km": 172.251, "metro_city": null}, {"pincode": "516390", "name": "Pulivendla", "district": "Y.S.R.", "state": "Andhra Pradesh", "lat": 14.449264, "lng": 78.222406, "area_sq_km": 41.51, "metro_city": null}, {"pincode": "516380", "name": "Muddanur", "district": "Y.S.R.", "state": "Andhra Pradesh", "lat": 14.661027, "lng": 78.368286, "area_sq_km": 262.013, "metro_city": null}, {"pincode": "403506", "name": "Valpoi", "district": "North Goa", "state": "Goa", "lat": 15.557006, "lng": 74.173293, "area_sq_km": 402.318, "metro_city": null}, {"pincode": "403503", "name": "Assonora", "district": "North Goa", "state": "Goa", "lat": 15.668963, "lng": 73.924837, "area_sq_km": 99.477, "metro_city": null}, {"pincode": "689503", "name": "Kulanada", "district": "Pathanamthitta", "state": "Kerala", "lat": 9.247682, "lng": 76.673079, "area_sq_km": 11.997, "metro_city": null}, {"pincode": "403521", "name": "Secretariat (North Goa)", "district": "North Goa", "state": "Goa", "lat": 15.518093, "lng": 73.835108, "area_sq_km": 7.803, "metro_city": null}, {"pincode": "689126", "name": "Ala (Alappuzha)", "district": "Alappuzha", "state": "Kerala", "lat": 9.291033, "lng": 76.62053, "area_sq_km": 5.964, "metro_city": null}, {"pincode": "210001", "name": "Banda", "district": "Banda", "state": "Uttar Pradesh", "lat": 25.481205, "lng": 80.370108, "area_sq_km": 1099.886, "metro_city": null}, {"pincode": "452030", "name": "I.D.A. Racecourse Road", "district": "Indore", "state": "Madhya Pradesh", "lat": 22.723556, "lng": 75.878206, "area_sq_km": 0.359, "metro_city": null}, {"pincode": "452029", "name": "LIC 19 MG Road", "district": "Indore", "state": "Madhya Pradesh", "lat": 22.719841, "lng": 75.879688, "area_sq_km": 0.376, "metro_city": null}, {"pincode": "452028", "name": "D&H Schechron Laxmibai nagar Indore", "district": "Indore", "state": "Madhya Pradesh", "lat": 22.731588, "lng": 75.841895, "area_sq_km": 1.11, "metro_city": null}, {"pincode": "452027", "name": "Sampadak Agniban Rajbada", "district": "Indore", "state": "Madhya Pradesh", "lat": 22.730281, "lng": 75.86564, "area_sq_km": 0.381, "metro_city": null}, {"pincode": "452026", "name": "Sampadak Nai Duniya Kesarbad Road", "district": "Indore", "state": "Madhya Pradesh", "lat": 22.698766, "lng": 75.842884, "area_sq_km": 0.275, "metro_city": null}, {"pincode": "452025", "name": "Sampadak Dainik Bhaskar AB Road", "district": "Indore", "state": "Madhya Pradesh", "lat": 22.737852, "lng": 75.893777, "area_sq_km": 0.457, "metro_city": null}, {"pincode": "452024", "name": "Chairman M.P.PSC Residency Area", "district": "Indore", "state": "Madhya Pradesh", "lat": 22.703185, "lng": 75.887616, "area_sq_km": 0.183, "metro_city": null}, {"pincode": "452023", "name": "Commandant APTC", "district": "Indore", "state": "Madhya Pradesh", "lat": 22.724664, "lng": 75.837028, "area_sq_km": 1.071, "metro_city": null}, {"pincode": "452022", "name": "Commandant CSWT BSF", "district": "Indore", "state": "Madhya Pradesh", "lat": 22.72195, "lng": 75.817107, "area_sq_km": 0.858, "metro_city": null}, {"pincode": "452021", "name": "State Bank of Indore Yashwant Road", "district": "Indore", "state": "Madhya Pradesh", "lat": 22.71543, "lng": 75.857417, "area_sq_km": 0.281, "metro_city": null}, {"pincode": "452020", "name": "Kasturbagram", "district": "Indore", "state": "Madhya Pradesh", "lat": 22.606123, "lng": 75.991239, "area_sq_km": 407.354, "metro_city": null}, {"pincode": "452018", "name": "Indore Tillaknagar", "district": "Indore", "state": "Madhya Pradesh", "lat": 22.720314, "lng": 75.899356, "area_sq_km": 3.027, "metro_city": null}, {"pincode": "761018", "name": "Purushottampur", "district": "Ganjam", "state": "Odisha", "lat": 19.522037, "lng": 84.911393, "area_sq_km": 127.037, "metro_city": null}, {"pincode": "452016", "name": "Indore Kanadia Road", "district": "Indore", "state": "Madhya Pradesh", "lat": 22.708661, "lng": 76.043588, "area_sq_km": 324.697, "metro_city": null}, {"pincode": "452015", "name": "Indore Kumar Khadi", "district": "Indore", "state": "Madhya Pradesh", "lat": 22.747523, "lng": 75.844927, "area_sq_km": 3.122, "metro_city": null}, {"pincode": "452031", "name": "Commissioner Nagar Nigam", "district": "Indore", "state": "Madhya Pradesh", "lat": 22.721561, "lng": 75.858716, "area_sq_km": 0.293, "metro_city": null}, {"pincode": "415101", "name": "Malkapur (Kolhapur)", "district": "Kolhapur", "state": "Maharashtra", "lat": 16.922199, "lng": 73.849679, "area_sq_km": 679.757, "metro_city": null}, {"pincode": "452032", "name": "Sampadak Niragdham Dulex shopping Comp", "district": "Indore", "state": "Madhya Pradesh", "lat": 22.737366, "lng": 75.888977, "area_sq_km": 0.293, "metro_city": null}, {"pincode": "415804", "name": "Devrukh", "district": "Ratnagiri", "state": "Maharashtra", "lat": 17.07439, "lng": 73.647078, "area_sq_km": 418.989, "metro_city": null}, {"pincode": "737126", "name": "Namchi", "district": "South District", "state": "Sikkim", "lat": 27.178207, "lng": 88.399337, "area_sq_km": 210.199, "metro_city": null}, {"pincode": "516349", "name": "Vemula", "district": "Y.S.R.", "state": "Andhra Pradesh", "lat": 14.375397, "lng": 78.320588, "area_sq_km": 168.07, "metro_city": null}, {"pincode": "689124", "name": "Kallisserry", "district": "Alappuzha", "state": "Kerala", "lat": 9.323226, "lng": 76.592586, "area_sq_km": 6.097, "metro_city": null}, {"pincode": "403103", "name": "Shiroda (North Goa)", "district": "North Goa", "state": "Goa", "lat": 15.328316, "lng": 74.041387, "area_sq_km": 38.053, "metro_city": null}, {"pincode": "209801", "name": "Qila", "district": "Unnao", "state": "Uttar Pradesh", "lat": 26.560475, "lng": 80.54759, "area_sq_km": 790.769, "metro_city": null}, {"pincode": "452041", "name": "Sampadak Swadesh Tilakpath Indore", "district": "Indore", "state": "Madhya Pradesh", "lat": 22.729306, "lng": 75.856089, "area_sq_km": 1.104, "metro_city": null}, {"pincode": "712148", "name": "Magra", "district": "Hugli", "state": "West Bengal", "lat": 22.987526, "lng": 88.302458, "area_sq_km": 72.709, "metro_city": null}, {"pincode": "403104", "name": "Neura", "district": "North Goa", "state": "Goa", "lat": 15.4435, "lng": 73.92066, "area_sq_km": 13.566, "metro_city": null}, {"pincode": "148018", "name": "Bagrian", "district": "Sangrur", "state": "Punjab", "lat": 30.362502, "lng": 75.979899, "area_sq_km": 5.652, "metro_city": null}, {"pincode": "452038", "name": "Commissioner Moti Bunlow MG Road Bhopal", "district": "Indore", "state": "Madhya Pradesh", "lat": 22.721454, "lng": 75.864966, "area_sq_km": 0.235, "metro_city": null}, {"pincode": "452037", "name": "Registrar High Court MG Road", "district": "Indore", "state": "Madhya Pradesh", "lat": 22.717891, "lng": 75.874566, "area_sq_km": 0.22, "metro_city": null}, {"pincode": "452036", "name": "Collector Moti Tabela", "district": "Indore", "state": "Madhya Pradesh", "lat": 22.710298, "lng": 75.850567, "area_sq_km": 0.807, "metro_city": null}, {"pincode": "231304", "name": "Chunar", "district": "Mirzapur", "state": "Uttar Pradesh", "lat": 25.005301, "lng": 82.797513, "area_sq_km": 1001.13, "metro_city": null}, {"pincode": "452035", "name": "Commissioner Income Tax Residency Area", "district": "Indore", "state": "Madhya Pradesh", "lat": 22.703403, "lng": 75.890481, "area_sq_km": 0.159, "metro_city": null}, {"pincode": "452034", "name": "Kulpati Devil Ahilya vishva Khandva Road Indore", "district": "Indore", "state": "Madhya Pradesh", "lat": 22.691434, "lng": 75.87795, "area_sq_km": 1.93, "metro_city": null}, {"pincode": "452033", "name": "Prabhandhak Jila Udyog Kendra Polo Ground", "district": "Indore", "state": "Madhya Pradesh", "lat": 22.738329, "lng": 75.856166, "area_sq_km": 1.269, "metro_city": null}, {"pincode": "452039", "name": "Sampadak Sat Prachar Press. Navratan Bag", "district": "Indore", "state": "Madhya Pradesh", "lat": 22.713607, "lng": 75.886788, "area_sq_km": 0.437, "metro_city": null}, {"pincode": "208014", "name": "Nirala Nagar", "district": "Kanpur Nagar", "state": "Uttar Pradesh", "lat": 26.43703, "lng": 80.316977, "area_sq_km": 3.24, "metro_city": null}, {"pincode": "403523", "name": "Carona", "district": "North Goa", "state": "Goa", "lat": 15.568855, "lng": 73.85959, "area_sq_km": 7.13, "metro_city": null}, {"pincode": "515415", "name": "Chukkalur", "district": "Anantapur", "state": "Andhra Pradesh", "lat": 14.964427, "lng": 78.027169, "area_sq_km": 208.034, "metro_city": null}, {"pincode": "516503", "name": "Kandimallayapalli", "district": "Y.S.R.", "state": "Andhra Pradesh", "lat": 14.822466, "lng": 78.908977, "area_sq_km": 307.033, "metro_city": null}, {"pincode": "516502", "name": "Chennampalli", "district": "Y.S.R.", "state": "Andhra Pradesh", "lat": 14.683989, "lng": 78.965187, "area_sq_km": 166.868, "metro_city": null}, {"pincode": "453115", "name": "Depalpur", "district": "Indore", "state": "Madhya Pradesh", "lat": 22.858013, "lng": 75.576126, "area_sq_km": 340.195, "metro_city": null}, {"pincode": "516501", "name": "Atlur", "district": "Y.S.R.", "state": "Andhra Pradesh", "lat": 14.561021, "lng": 79.001185, "area_sq_km": 422.01, "metro_city": null}, {"pincode": "795134", "name": "Nambol", "district": "Bishnupur, Imphal West, Senapati", "state": "Manipur", "lat": 24.697186, "lng": 93.777593, "area_sq_km": 184.076, "metro_city": null}, {"pincode": "516484", "name": "Balapanur", "district": "Y.S.R.", "state": "Andhra Pradesh", "lat": 14.545061, "lng": 78.180984, "area_sq_km": 145.337, "metro_city": null}, {"pincode": "516474", "name": "Tallaproddatur", "district": "Y.S.R.", "state": "Andhra Pradesh", "lat": 14.848267, "lng": 78.148112, "area_sq_km": 209.052, "metro_city": null}, {"pincode": "516464", "name": "Lavanur", "district": "Y.S.R.", "state": "Andhra Pradesh", "lat": 14.694364, "lng": 78.179015, "area_sq_km": 172.602, "metro_city": null}, {"pincode": "225303", "name": "Mohammad Pur Khaley", "district": "Bara Banki", "state": "Uttar Pradesh", "lat": 27.207691, "lng": 81.284729, "area_sq_km": 24.132, "metro_city": null}, {"pincode": "759127", "name": "Kishoreganj", "district": "Anugul", "state": "Odisha", "lat": 20.77756, "lng": 84.841059, "area_sq_km": 1104.547, "metro_city": null}, {"pincode": "516454", "name": "Simhadripuram", "district": "Y.S.R.", "state": "Andhra Pradesh", "lat": 14.602256, "lng": 78.134342, "area_sq_km": 97.328, "metro_city": null}, {"pincode": "370240", "name": "Gopalpuri", "district": "Kachchh", "state": "Gujarat", "lat": 23.117962, "lng": 70.167689, "area_sq_km": 51.941, "metro_city": null}, {"pincode": "516444", "name": "Kondapuram (Cuddapah)", "district": "Y.S.R.", "state": "Andhra Pradesh", "lat": 14.758004, "lng": 78.233042, "area_sq_km": 158.871, "metro_city": null}, {"pincode": "689544", "name": "Vennikulam", "district": "Pathanamthitta", "state": "Kerala", "lat": 9.394906, "lng": 76.693734, "area_sq_km": 7.665, "metro_city": null}, {"pincode": "283121", "name": "Kheragarh", "district": "Agra", "state": "Uttar Pradesh", "lat": 26.936262, "lng": 77.808572, "area_sq_km": 105.123, "metro_city": null}, {"pincode": "226011", "name": "Manaknagar", "district": "Lucknow", "state": "Uttar Pradesh", "lat": 26.822309, "lng": 80.888363, "area_sq_km": 3.063, "metro_city": null}, {"pincode": "226016", "name": "Hal (Lucknow)", "district": "Lucknow", "state": "Uttar Pradesh", "lat": 26.885848, "lng": 80.990542, "area_sq_km": 15.404, "metro_city": null}, {"pincode": "516504", "name": "Neelakantaraopet", "district": "Y.S.R.", "state": "Andhra Pradesh", "lat": 14.230899, "lng": 78.819487, "area_sq_km": 406.518, "metro_city": null}, {"pincode": "226025", "name": "B R A University", "district": "Lucknow", "state": "Uttar Pradesh", "lat": 26.768354, "lng": 80.924322, "area_sq_km": 1.565, "metro_city": null}, {"pincode": "691520", "name": "Cheppara", "district": "Kollam", "state": "Kerala", "lat": 8.931416, "lng": 76.796691, "area_sq_km": 13.387, "metro_city": null}, {"pincode": "229120", "name": "Rail Coach Factory Lalganj(Raebareli)", "district": "Rae Bareli", "state": "Uttar Pradesh", "lat": 26.184059, "lng": 81.008472, "area_sq_km": 5.833, "metro_city": null}, {"pincode": "632201", "name": "Kilvayathinankuppam", "district": "Vellore", "state": "Tamil Nadu", "lat": 12.953926, "lng": 78.99268, "area_sq_km": 15.47, "metro_city": null}, {"pincode": "403716", "name": "Benaulim", "district": "South Goa", "state": "Goa", "lat": 15.259009, "lng": 73.935756, "area_sq_km": 11.398, "metro_city": null}, {"pincode": "403529", "name": "Bicholim Industrial Estate", "district": "North Goa", "state": "Goa", "lat": 15.581642, "lng": 73.95652, "area_sq_km": 1.099, "metro_city": null}, {"pincode": "403527", "name": "Mandrem", "district": "North Goa", "state": "Goa", "lat": 15.665132, "lng": 73.736922, "area_sq_km": 20.246, "metro_city": null}, {"pincode": "721139", "name": "Panskura", "district": "Paschim Medinipur, Purba Medinipur", "state": "West Bengal", "lat": 22.443697, "lng": 87.708525, "area_sq_km": 111.618, "metro_city": null}, {"pincode": "516439", "name": "Mylavaram (Cuddapah)", "district": "Y.S.R.", "state": "Andhra Pradesh", "lat": 14.868015, "lng": 78.327938, "area_sq_km": 6.694, "metro_city": null}, {"pincode": "632115", "name": "Thiruvalluvar University", "district": "Vellore", "state": "Tamil Nadu", "lat": 13.0329, "lng": 79.215267, "area_sq_km": 2.331, "metro_city": null}, {"pincode": "403526", "name": "Tivim Ie", "district": "North Goa", "state": "Goa", "lat": 15.609184, "lng": 73.825407, "area_sq_km": 4.148, "metro_city": null},